Company Name,Executive First Name,Executive Last Name,Address,City,State,Phone Number Combined,Primary SIC Description,SIC Code 1 Description,SIC Code 2 Description,Location Sales Volume Actual,Metro Area 1,Address1,lat,lon
Idc Construction LLC,Karyn,Gang,1000 Churchill Ct,Woodstock,GA,(678) 213-1110,General Contractors,General Contractors,,"$8,896,000 ",Atl-Ss-Rswl,1000 Churchill Ct,,
Personal Foot-Ankle SPCLST PC,Chuy,Gang,1240 GA Highway 15 N,Sandersville,GA,(478) 552-1086,Physicians & Surgeons,Physicians & Surgeons,,"$530,000 ",,1240 GA Highway 15 N,,
Phoenix Renovations Group,Richard,Gang,2870 Peachtree Rd NW # 429,Atlanta,GA,(404) 812-9914,Remodeling & Repairing Building Contractors,Remodeling & Repairing Building Contractors,General Contractors,"$890,000 ",Atl-Ss-Rswl,2870 Peachtree Rd NW,,
A-1 Uniforms & Embroidery,Linda,Kang,7601 Waters Ave # G,Savannah,GA,(912) 692-0711,Business Services NEC,Business Services NEC,Uniforms & Accessories,"$241,000 ",Savannah,7601 Waters Ave,32.003238,-81.10224
A1 Uniforms,Linda,Kang,7601 Waters Ave # G,Savannah,GA,(912) 692-0711,Uniforms & Accessories,Uniforms & Accessories,,"$963,000 ",Savannah,7601 Waters Ave,32.003238,-81.10224
Abba Martial Arts,Il Seob,Kang,303 Kelly Dr # 10,Peachtree City,GA,(678) 545-1889,Martial Arts Instruction,Martial Arts Instruction,,"$142,000 ",Atl-Ss-Rswl,303 Kelly Dr,33.381324,-84.581122
Abia International LLC,Il J,Kang,6598 Pierless Ave,Sugar Hill,GA,Not Available,Nonclassified Establishments,Nonclassified Establishments,,$0 ,Atl-Ss-Rswl,6598 Pierless Ave,34.13626698520833,-84.06424749858644
Ad Victoriam Solutions,Janet,Kang,6525 Shiloh Rd # D-300,Alpharetta,GA,(770) 691-1642,Website Design Service,Website Design Service,,"$1,157,000 ",Atl-Ss-Rswl,6525 Shiloh Rd,,
AJC International Inc,Hojin,Kang,1000 Abernathy Rd # 600,Atlanta,GA,(404) 252-6750,Frozen Foods-Wholesale,Frozen Foods-Wholesale,Food Products (Whls),$0 ,Atl-Ss-Rswl,1000 Abernathy Rd,33.9348521,-84.35462570825472
Ameritel Wireless Phone Repair,Jing,Kang,10820 Abbotts Bridge Rd,Duluth,GA,(770) 418-0339,Cellular Telephones-Service & Repair,Cellular Telephones-Service & Repair,,"$208,000 ",Atl-Ss-Rswl,10820 Abbotts Bridge Rd,34.0073419,-84.1465789
Angies Beauty Supply,Min,Kang,697 Davis Rd # 1500,Stockbridge,GA,(678) 565-0622,Cosmetics & Perfumes-Retail,Cosmetics & Perfumes-Retail,Beauty Salons-Equipment & Supplies (Whls),"$358,000 ",Atl-Ss-Rswl,697 Davis Rd,33.5561565,-84.25462725
Atl Wings & Things,Dongsin,Kang,1215 Scenic Hwy,Lawrenceville,GA,(678) 344-0457,Restaurants,Restaurants,,"$105,000 ",Atl-Ss-Rswl,1215 Scenic Hwy,33.90713396069963,-84.00305885883239
Avanade Inc,Alice,Kang,84 Peachtree St NE # 700,Atlanta,GA,(404) 751-0751,Business Management Consultants,Business Management Consultants,,"$940,000 ",Atl-Ss-Rswl,84 Peachtree St NE,33.7628031380996,-84.38724081975265
Avery Dennison Corp,Harvir,Kang,513 Highway 74 S,Peachtree City,GA,(770) 487-7516,Office Supplies,Office Supplies,Coated & Laminated Paper NEC (Mfrs),"$46,453,000 ",Atl-Ss-Rswl,513 Highway 74 S,,
BBG,Charlette,Kang,1349 W Peachtree St NW # 900,Atlanta,GA,(770) 777-6133,Real Estate Appraisers,Real Estate Appraisers,Real Estate,"$369,000 ",Atl-Ss-Rswl,1349 W Peachtree St NW,33.7934484,-84.3874543
Best Imports & Wholesale LLC,Roger,Kang,140 Satellite Blvd NE # A,Suwanee,GA,(678) 889-4400,Jewelers-Retail,Jewelers-Retail,General Merchandise-Wholesale,"$337,000 ",Atl-Ss-Rswl,140 Satellite Blvd NE,,
Boost Mobile Auth Retailer,Andy,Kang,2440 Wesley Chapel Rd # E,Decatur,GA,(678) 418-1444,Cellular Telephones (Services),Cellular Telephones (Services),Authorized Retailer-Cellular Services,"$1,760,000 ",Atl-Ss-Rswl,2440 Wesley Chapel Rd,,
Boost Mobile Premier,Hyon C,Kang,134 S Clayton St # 15,Lawrenceville,GA,(678) 324-3481,Cellular Telephones (Services),Cellular Telephones (Services),Authorized Retailer-Cellular Services,"$2,660,000 ",Atl-Ss-Rswl,134 S Clayton St,33.9489926,-83.9864484
BST Innovation LLC,Byung H,Kang,2476 Pleasant Hill Rd # 204,Duluth,GA,Not Available,Nonclassified Establishments,Nonclassified Establishments,,$0 ,Atl-Ss-Rswl,2476 Pleasant Hill Rd,34.0045308,-84.1700046
C2 Education,Jenny,Kang,3463 Law Suw Rd # 103,Suwanee,GA,(770) 614-3455,Schools With Special Academic Education,Schools With Special Academic Education,Tutoring,$0 ,Atl-Ss-Rswl,3463 Law Suw Rd,,
Cafe 1000,Suzy,Kang,1000 Windward Concourse,Alpharetta,GA,(678) 297-2812,Restaurants,Restaurants,,"$599,000 ",Atl-Ss-Rswl,1000 Windward Concourse,34.0959803,-84.24089195637019
Cleaners Spring,J,Kang,1362 Terrell Mill Rd SE,Marietta,GA,(770) 916-1004,Cleaners,Cleaners,,"$430,000 ",Atl-Ss-Rswl,1362 Terrell Mill Rd SE,33.9191193,-84.46601967535346
Coach,Ellie,Kang,3393 Peachtree Rd NE # 3085,Atlanta,GA,(404) 237-6297,Handbags,Handbags,Accessories-Fashion,"$4,600,000 ",Atl-Ss-Rswl,3393 Peachtree Rd NE,33.8466829,-84.36285582128988
Cornelia Dental,Joshua T,Kang,105 Highland Ave,Cornelia,GA,(706) 778-8645,Dentists,Dentists,,"$1,521,000 ",Cornelia,105 Highland Ave,34.50334497468354,-83.52390612658228
Delta Community Credit Union,Chris,Kang,6766 Hickory Flat Hwy,Canton,GA,(404) 715-4725,Credit Unions,Credit Unions,,"$594,000 ",Atl-Ss-Rswl,6766 Hickory Flat Hwy,34.171375350000005,-84.41667432106482
Epic PC Lounge LLC,Sunghye,Kang,2605 Pleasant Hill Rd # 600b,Duluth,GA,(678) 585-4858,Internet Service,Internet Service,Table Tennis Facilities,"$190,000 ",Atl-Ss-Rswl,2605 Pleasant Hill Rd,33.97009426044784,-84.14685324201139
Exponation LLC,Helen,Kang,50 Glenlake Pkwy # 430,Atlanta,GA,(770) 649-0300,Business Service Centers,Business Service Centers,,"$1,814,000 ",Atl-Ss-Rswl,50 Glenlake Pkwy,33.9407514,-84.3615589
Extra Gold,Iksoo,Kang,5137 Old National Hwy,Atlanta,GA,(404) 767-9881,Craft Galleries & Dealers,Craft Galleries & Dealers,Cosmetics & Perfumes-Retail,"$164,000 ",Atl-Ss-Rswl,5137 Old National Hwy,,
G S M G Entertainment LLC,Ki H,Kang,PO Box 956219,Duluth,GA,Not Available,Entertainment Bureaus,Entertainment Bureaus,,"$207,000 ",Atl-Ss-Rswl,PO Box 956219,,
Georgia Eye Inst Of Southeast,Doo Y,Kang,741 Weeping Willow Dr,Hinesville,GA,(912) 368-2522,Optometrists OD,Optometrists OD,,"$96,000 ",Hinesville,741 Weeping Willow Dr,31.831623843809208,-81.61735148611507
HD Supply Facilities Mntnc,Cindy,Kang,2455 Paces Ferry Rd SE,Atlanta,GA,(770) 852-9000,Contractors-Equip/Supls-Dlrs/Svc (Whls),Contractors-Equip/Supls-Dlrs/Svc (Whls),Home Improvements,$0 ,Atl-Ss-Rswl,2455 Paces Ferry Rd SE,,
Health One Medical Group LLC,Christopher,Kang,10710 Medlock Brg Rd # 150,Johns Creek,GA,(770) 497-4188,Medical Groups,Medical Groups,Physicians & Surgeons,"$762,000 ",Atl-Ss-Rswl,10710 Medlock Brg Rd,,
Health One Medical Group LLC,Christopher,Kang,10710 Medlock Bridge Rd # 15,Johns Creek,GA,(770) 497-4188,Physicians & Surgeons,Physicians & Surgeons,,"$670,000 ",Atl-Ss-Rswl,10710 Medlock Bridge Rd,34.04055958537783,-84.18399463333674
Health1care Medical Group Dr,Harold,Kang,10710 Medlock Brg Rd # 200,Johns Creek,GA,(770) 497-4188,Clinics,Clinics,Physicians & Surgeons,$0 ,Atl-Ss-Rswl,10710 Medlock Brg Rd,,
Home Depot,Harbikramji,Kang,1414 Tallahassee Hwy,Bainbridge,GA,(229) 246-1804,Home Centers,Home Centers,Home Improvements,"$20,147,000 ",Bainbridge,1414 Tallahassee Hwy,30.8893761,-84.5661454
Hyundai Construction Eqpt,Myung S,Kang,6100 Atlantic Blvd,Norcross,GA,(678) 823-7777,Excavation Equipment Manufacturers,Excavation Equipment Manufacturers,General Contractors,"$14,439,000 ",Atl-Ss-Rswl,6100 Atlantic Blvd,33.94101508040201,-84.23310400502513
Infor Inc,Jiwoo,Kang,13560 Morris Rd,Alpharetta,GA,(603) 929-0577,Software/Application/Platform Publishing,Software/Application/Platform Publishing,Telecommunications Services,"$82,461,000 ",Atl-Ss-Rswl,13560 Morris Rd,34.084234,-84.263175
Istar,Seung,Kang,3480 Preston Ridge Rd # 100,Alpharetta,GA,(678) 297-0100,Real Estate,Real Estate,Financing,"$24,535,000 ",Atl-Ss-Rswl,3480 Preston Ridge Rd,34.07169565558249,-84.26014925696175
Jessica Kang,Jessica V,Kang,6602 Waters Ave # A,Savannah,GA,(912) 350-6000,Physicians & Surgeons,Physicians & Surgeons,,"$695,000 ",Savannah,6602 Waters Ave,32.0104136,-81.0986837
Jolly Joes Cafe,Taedu,Kang,1153 Veterans Memorial Hwy SW,Mableton,GA,(770) 941-0484,Restaurants,Restaurants,Parcel Delivery,"$270,000 ",Atl-Ss-Rswl,1153 Veterans Memorial Hwy SW,33.8156862,-84.5645665
Jung Studio,Jung,Kang,314 Pharr Rd NE # B,Atlanta,GA,(678) 637-3224,Beauty Salons,Beauty Salons,,"$50,000 ",Atl-Ss-Rswl,314 Pharr Rd NE,33.83711491666667,-84.37733629166667
K Beauty Supply,Mira,Kang,519 N Expressway,Griffin,GA,(770) 467-0118,Cosmetics & Perfumes-Retail,Cosmetics & Perfumes-Retail,,"$119,000 ",Atl-Ss-Rswl,519 N Expressway,33.25034206060606,-84.2871059040404
K Beauty Supply,Min S,Kang,1830 N Columbia St,Milledgeville,GA,(478) 452-2023,Cosmetics & Perfumes-Retail,Cosmetics & Perfumes-Retail,Beauty Salons-Equipment & Supplies (Whls),"$133,000 ",Milledgevle,1830 N Columbia St,33.10667764039632,-83.2528114481577
K Beauty Supply,Thomas,Kang,1108 Highway 19 N,Thomaston,GA,(706) 647-5216,Cosmetics & Perfumes-Retail,Cosmetics & Perfumes-Retail,Beauty Salons-Equipment & Supplies (Whls),"$256,000 ",Thomaston,1108 Highway 19 N,,
K P Personal Touch Cleaners,John,Kang,5509 Peachtree Blvd,Chamblee,GA,(770) 457-0888,Cleaners,Cleaners,,"$69,000 ",Atl-Ss-Rswl,5509 Peachtree Blvd,33.9031802,-84.297031
Kang Chiropractic & Clinic,Hyung G,Kang,3585 Pchtr Ind Blvd # 102,Duluth,GA,(770) 495-0014,Chiropractors DC,Chiropractors DC,,"$262,000 ",Atl-Ss-Rswl,3585 Pchtr Ind Blvd,,
Kang Chiropractic Clinic,Hyang,Kang,3585 Pchtr Ind Blvd # 102,Duluth,GA,(770) 495-0014,Clinics,Clinics,Chiropractors DC,"$359,000 ",Atl-Ss-Rswl,3585 Pchtr Ind Blvd,,
Kang Christine O,Christine O,Kang,1000 Medical Center Blvd,Lawrenceville,GA,(678) 312-4440,Physicians & Surgeons,Physicians & Surgeons,,"$538,000 ",Atl-Ss-Rswl,1000 Medical Center Blvd,33.96307405,-84.01768791762677
Kang Edward Park MD,Edward Park,Kang,460 Nside Cherokee Blvd # 100,Canton,GA,(770) 292-3490,Physicians & Surgeons,Physicians & Surgeons,,"$163,000 ",Atl-Ss-Rswl,460 Nside Cherokee Blvd,,
Kang Erika,Erika,Kang,5965 Parkway North Blvd # C,Cumming,GA,(770) 886-5700,Nurses-Practitioners,Nurses-Practitioners,,"$66,000 ",Atl-Ss-Rswl,5965 Parkway North Blvd,,
Kang Jina DDS,Jina,Kang,1568 Ind Trl Lil Rd # 202,Norcross,GA,(770) 609-6106,Dentists,Dentists,,$0 ,Atl-Ss-Rswl,1568 Ind Trl Lil Rd,,
Kang Jung Soo,Jung S,Kang,2580 Windy Hill Rd SE # 300,Marietta,GA,(770) 916-1567,Physical Therapists,Physical Therapists,,$0 ,Atl-Ss-Rswl,2580 Windy Hill Rd SE,33.900647,-84.4780521
Kang Larry MD,Larry,Kang,3650 Steve Reynolds Blvd,Duluth,GA,(770) 931-6012,Physicians & Surgeons,Physicians & Surgeons,,"$180,000 ",Atl-Ss-Rswl,3650 Steve Reynolds Blvd,,
Kang Mohleen MD,Mohleen,Kang,100 Woodruff Cir NE # 327,Atlanta,GA,Not Available,Physicians & Surgeons,Physicians & Surgeons,,"$608,000 ",Atl-Ss-Rswl,100 Woodruff Cir NE,,
Kang Myong Jin MD,Myong J,Kang,3790 Pleasant Hill Rd,Duluth,GA,(770) 442-1911,Physicians & Surgeons,Physicians & Surgeons,,$0 ,Atl-Ss-Rswl,3790 Pleasant Hill Rd,33.99568856758134,-84.16238418627434
Kang Thomas Young,Thomas Y,Kang,765 Lanier 400 Pkwy # A,Cumming,GA,(770) 205-1294,Physicians Assistants,Physicians Assistants,,$0 ,Atl-Ss-Rswl,765 Lanier 400 Pkwy,34.216422573422676,-84.1189576267741
Kang's Stop-N-Shop,Dong,Kang,930 N Columbia St,Milledgeville,GA,(478) 452-9577,Service Stations-Gasoline & Oil,Service Stations-Gasoline & Oil,Convenience Stores,"$1,177,000 ",Milledgevle,930 N Columbia St,33.09107507351489,-83.2367326569435
"Kang, Doo Y OD",Doo Y,Kang,131 GA Highway 32 Byp,Alma,GA,Not Available,Optometrists OD,Optometrists OD,,"$262,000 ",,131 GA Highway 32 Byp,,
"Kang, Elise",Elise,Kang,7355 Roswell Rd,Atlanta,GA,(678) 579-9492,Pharmacists,Pharmacists,,"$75,000 ",Atl-Ss-Rswl,7355 Roswell Rd,33.9561618,-84.3639379
"Kang, Erick Woo",Erick Woo,Kang,1600 Towne Lake Pkwy,Woodstock,GA,(770) 517-1022,Pharmacists,Pharmacists,,$0 ,Atl-Ss-Rswl,1600 Towne Lake Pkwy,34.1064024,-84.5442486
"Kang, Hannah",Hannah,Kang,1175 Cascade Pkwy SW,Atlanta,GA,(404) 505-4071,Pharmacists,Pharmacists,,"$75,000 ",Atl-Ss-Rswl,1175 Cascade Pkwy SW,33.7257731,-84.498298
"Kang, Hee Pa",Hee,Kang,2001 Peachtree Rd NE # 575,Atlanta,GA,(404) 350-0106,Physicians Assistants,Physicians Assistants,,"$75,000 ",Atl-Ss-Rswl,2001 Peachtree Rd NE,33.809119,-84.391476
"Kang, Jennifer U",Jennifer U,Kang,3637 Peachtree Rd NE,Atlanta,GA,(404) 926-3541,Nurses-Practitioners,Nurses-Practitioners,,"$75,000 ",Atl-Ss-Rswl,3637 Peachtree Rd NE,33.8527632,-84.3584610334122
"Kang, Jennifer U Msn",Jennifer U,Kang,6300 Hospital Pkwy # 375,Johns Creek,GA,Not Available,Nurses-Registered Rn,Nurses-Registered Rn,,"$75,000 ",Atl-Ss-Rswl,6300 Hospital Pkwy,34.069062,-84.175125
"Kang, Jin Hyang",Jin Hyang,Kang,954 Joe Frank Harris Pkwy SE,Cartersville,GA,(770) 383-3055,Pharmacists,Pharmacists,,"$55,000 ",Atl-Ss-Rswl,954 Joe Frank Harris Pkwy SE,34.19919908582526,-84.79460518090568
"Kang, Julie Kim",Julie Kim,Kang,500 Pooler Pkwy,Pooler,GA,(912) 748-5170,Pharmacists,Pharmacists,,"$60,000 ",Savannah,500 Pooler Pkwy,32.0896064,-81.2764386
"Kang, Kelly Dc",Kelly,Kang,1 Baltimore Pl NW # 100,Atlanta,GA,(770) 426-2786,Chiropractors DC,Chiropractors DC,,"$115,000 ",Atl-Ss-Rswl,1 Baltimore Pl NW,33.7685997,-84.388118
"Kang, Pearl",Pearl,Kang,6615 Roswell Rd,Atlanta,GA,(404) 843-4340,Pharmacists,Pharmacists,,"$75,000 ",Atl-Ss-Rswl,6615 Roswell Rd,33.8546272,-84.3826398
"Kang, Sungtaek",Sungtaek,Kang,3296 Summit Ridge Pkwy # 320,Duluth,GA,(470) 282-1075,Acupuncture,Acupuncture,,"$49,000 ",Atl-Ss-Rswl,3296 Summit Ridge Pkwy,33.9878075455603,-84.16611441062432
"Kang, Yaeram Nile",Yaeram Nile,Kang,3200 Highlands Pkwy SE # 150,Smyrna,GA,(770) 433-2300,Speech Pathologists,Speech Pathologists,,$0 ,Atl-Ss-Rswl,3200 Highlands Pkwy SE,33.827315,-84.497163
"Kang, Yao MD",Yao,Kang,1120 15th St,Augusta,GA,(706) 721-7005,Physicians & Surgeons,Physicians & Surgeons,,"$668,000 ",Augusta,1120 15th St,33.471100050000004,-81.98981674626567
"Kang, Yuri",Yuri,Kang,1120 15th St # Bi-1056,Augusta,GA,(706) 721-8623,Nurses-Practitioners,Nurses-Practitioners,,"$56,000 ",Augusta,1120 15th St,33.471100050000004,-81.98981674626567
Keum Soo Kang Sn-Korean Rstrnt,Byung,Kang,1510 Lafayette Pkwy,Lagrange,GA,(706) 882-3606,Restaurants,Restaurants,,"$121,000 ",Lagrange,1510 Lafayette Pkwy,33.042019,-84.982825
Kimus Trading Inc,Sook K,Kang,1460 Distribution Dr,Suwanee,GA,(678) 793-2046,Nonclassified Establishments,Nonclassified Establishments,,$0 ,Atl-Ss-Rswl,1460 Distribution Dr,,
Korea House,Jooyeon,Kang,5507 Veterans Pkwy,Columbus,GA,(706) 653-9008,Restaurants,Restaurants,,"$136,000 ",Columbus,5507 Veterans Pkwy,32.522636511938245,-84.9634076333546
Kurt Kang,Kurt,Kang,101 W Mulberry Blvd # 100,Savannah,GA,(912) 350-6000,Physicians & Surgeons,Physicians & Surgeons,,"$695,000 ",Savannah,101 W Mulberry Blvd,32.148868,-81.2430637
Laurel Springs Cleaners,Amy,Kang,5355 Laurel Springs Pkwy,Suwanee,GA,(678) 208-9200,Cleaners,Cleaners,,"$466,000 ",Atl-Ss-Rswl,5355 Laurel Springs Pkwy,,
LG Hausys America Inc,Yk,Kang,900 Circle 75 Pkwy SE # 1500,Atlanta,GA,(678) 486-8250,Federal Government Contractors,Federal Government Contractors,,$0 ,Atl-Ss-Rswl,900 Circle 75 Pkwy SE,33.887458,-84.46796785000001
Love Your Clothes,Drew,Kang,3760 Sixes Rd # 102,Canton,GA,(470) 863-5372,Cleaners,Cleaners,Alterations-Clothing,"$151,000 ",Atl-Ss-Rswl,3760 Sixes Rd,,
Medical Acupuncture & Nutri,Yu,Kang,2786 N Decatur Rd # 220,Decatur,GA,(404) 294-6284,Acupuncture,Acupuncture,,"$142,000 ",Atl-Ss-Rswl,2786 N Decatur Rd,33.7905146,-84.3070717
Miracle Home-Style Laundry Inc,Kyon,Kang,2538 Bouldercrest Rd SE,Atlanta,GA,(404) 241-2196,Laundries-Self Service,Laundries-Self Service,Laundries,"$85,000 ",Atl-Ss-Rswl,2538 Bouldercrest Rd SE,,
Moe's Southwest Grill,Dae,Kang,3155 Cobb Pkwy SE,Atlanta,GA,(770) 956-7979,Restaurants,Restaurants,Foods-Carry Out,"$808,000 ",Atl-Ss-Rswl,3155 Cobb Pkwy SE,,
Moe's Southwest Grill,Dae,Kang,1146 Highway 20 E # 1,Mcdonough,GA,(770) 898-8622,Restaurants,Restaurants,Foods-Carry Out,"$785,000 ",Atl-Ss-Rswl,1146 Highway 20 E,,
New World Auto Svc & Repair,Jung,Kang,3828 Stewart Rd # F,Doraville,GA,(770) 455-3303,Automobile Repairing & Service,Automobile Repairing & Service,,"$126,000 ",Atl-Ss-Rswl,3828 Stewart Rd,33.90262072071473,-84.27545108198132
North Metropolitan Radiology,Brandon S,Kang,2078 Teron Trce # 200,Dacula,GA,(678) 312-8600,Physicians & Surgeons,Physicians & Surgeons,,"$538,000 ",Atl-Ss-Rswl,2078 Teron Trce,,
North Metropolitan Radiology,Brandon S,Kang,631 Professional Dr # 190,Lawrenceville,GA,(678) 312-8640,Physicians & Surgeons,Physicians & Surgeons,,"$538,000 ",Atl-Ss-Rswl,631 Professional Dr,33.963461,-84.01217
Northwest Radiology Conslnts,Christine O,Kang,6095 Prof Pkwy # B101,Douglasville,GA,(770) 947-8100,Physicians & Surgeons,Physicians & Surgeons,,"$522,000 ",Atl-Ss-Rswl,6095 Prof Pkwy,,
Old Alabama Shoe Repair,Jake,Kang,3000 Old Alabama Rd # 114a,Alpharetta,GA,(770) 876-6291,Insurance,Insurance,Shoe & Boot Repairing,"$90,000 ",Atl-Ss-Rswl,3000 Old Alabama Rd,34.0228346,-84.2710698
P K Restaurant Group,Shin,Kang,4355 Intrntl Blvd # 100,Norcross,GA,(678) 585-1617,Restaurant Management,Restaurant Management,,"$368,000 ",Atl-Ss-Rswl,4355 Intrntl Blvd,,
Pathstone,Julie,Kang,3344 Piedmont Rd NE # 1550,Atlanta,GA,(404) 592-0180,Financial Advisory Services,Financial Advisory Services,Non-Profit Organizations,"$1,777,000 ",Atl-Ss-Rswl,3344 Piedmont Rd NE,33.84598309407624,-84.3724543217902
Peak Campus,Seung,Kang,2970 Clairmont Rd NE # 310,Brookhaven,GA,(404) 920-5300,Real Estate Management,Real Estate Management,Management Services,"$337,000 ",Atl-Ss-Rswl,2970 Clairmont Rd NE,33.844327750000005,-84.31559876805382
Pj's Hot Wings,Rachel,Kang,745 Bankhead Hwy,Carrollton,GA,(770) 832-1710,Restaurants,Restaurants,,"$93,000 ",Atl-Ss-Rswl,745 Bankhead Hwy,33.587915979591834,-85.05471514285715
POS Unlimited,Tae,Kang,3230 Pchtree Crs Cir # O,Norcross,GA,(770) 447-0102,Cash Registers & Supplies (Whls),Cash Registers & Supplies (Whls),,"$4,168,000 ",Atl-Ss-Rswl,3230 Pchtree Crs Cir,,
Professional Cleaners,Jean,Kang,1200 W Paces Ferry Rd NW,Atlanta,GA,(404) 365-9812,Cleaners,Cleaners,,"$676,000 ",Atl-Ss-Rswl,1200 W Paces Ferry Rd NW,33.849759,-84.427668
Quick Spa Car Wash,Richard,Kang,5418 Covington Hwy,Decatur,GA,(770) 676-0909,Car Washing & Polishing,Car Washing & Polishing,,"$138,000 ",Atl-Ss-Rswl,5418 Covington Hwy,,
River Parc Internal Medicine,Christine,Kang,4855 River Green Pkwy # 140,Duluth,GA,(678) 417-0077,Physicians & Surgeons,Physicians & Surgeons,,"$1,791,000 ",Atl-Ss-Rswl,4855 River Green Pkwy,34.01412349983391,-84.17223517733042
Rosa's Pizza,Alex,Kang,62 Broad St NW,Atlanta,GA,(404) 521-2596,Pizza,Pizza,Restaurants,"$333,000 ",Atl-Ss-Rswl,62 Broad St NW,33.75578818181818,-84.38945418181818
Rubin Lublin LLC,Victor,Kang,3740 Davinci Ct # 100,Norcross,GA,(770) 246-3351,Attorneys,Attorneys,,"$392,000 ",Atl-Ss-Rswl,3740 Davinci Ct,,
Rubin Lublin Suarez Serrano,Victor,Kang,3740 Davinci Ct # 400,Norcross,GA,(770) 246-3300,Attorneys,Attorneys,,"$131,000 ",Atl-Ss-Rswl,3740 Davinci Ct,,
Sahm Yook USA,Eun,Kang,2670 N Berk Lk Rd NW # 17,Duluth,GA,(678) 205-3060,Business Services NEC,Business Services NEC,,"$195,000 ",Atl-Ss-Rswl,2670 N Berk Lk Rd NW,,
Salad Express,John,Kang,1171 Lavista Rd NE,Atlanta,GA,(404) 929-8828,Restaurants,Restaurants,Salads (Whls),"$599,000 ",Atl-Ss-Rswl,1171 Lavista Rd NE,33.81770745,-84.35011571726382
Sewon America Inc,In Ho,Kang,1000 Sewon Blvd,Lagrange,GA,(706) 298-5800,Automobile & Truck Brokers (Whls),Automobile & Truck Brokers (Whls),,"$455,904,000 ",Lagrange,1000 Sewon Blvd,32.9951729,-85.0628846
Shell,Wondo,Kang,745 Bankhead Hwy,Carrollton,GA,(770) 832-1708,Service Stations-Gasoline & Oil,Service Stations-Gasoline & Oil,Convenience Stores,"$4,159,000 ",Atl-Ss-Rswl,745 Bankhead Hwy,33.587915979591834,-85.05471514285715
Shinhan Bank America,Lauren,Kang,2170 Pleasant Hill Rd,Duluth,GA,(678) 512-8200,Banks,Banks,,"$2,115,000 ",Atl-Ss-Rswl,2170 Pleasant Hill Rd,34.0045308,-84.1700046
Sky II Beauty Supply Inc,Kim,Kang,1680 Mall Of Georgia Blvd,Buford,GA,(678) 288-9591,Wigs Toupees & Hairpieces,Wigs Toupees & Hairpieces,Cosmetics & Perfumes-Retail,$0 ,Atl-Ss-Rswl,1680 Mall Of Georgia Blvd,34.062804400000005,-83.99394192398395
Statesboro Korean Baptist Msn,Taek Goo,Kang,405 Wilburn Cir,Statesboro,GA,(912) 489-7915,Churches,Churches,,$0 ,Statesboro,405 Wilburn Cir,32.44765610670525,-81.7639969859063
Sun Acupuncture-Herbal Clinic,Keesun,Kang,3588 Old Milton Pkwy,Alpharetta,GA,(770) 772-1851,Acupuncture,Acupuncture,Physicians & Surgeons,"$75,000 ",Atl-Ss-Rswl,3588 Old Milton Pkwy,34.065442306136774,-84.25487349390602
Top Travel Inc,Young,Kang,3473 Old Norcross Rd,Duluth,GA,(678) 990-5551,Travel Agencies & Bureaus,Travel Agencies & Bureaus,,"$382,000 ",Atl-Ss-Rswl,3473 Old Norcross Rd,,
Ujoynus Care,Grace,Kang,4855 Pchtr Ind Blvd # 220,Berkeley Lake,GA,(678) 248-5832,Home Health Service,Home Health Service,,"$1,290,000 ",Atl-Ss-Rswl,4855 Pchtr Ind Blvd,,
Veritiv Corp,John,Kang,6600 Governors Lake Pkwy,Peachtree Corners,GA,(770) 447-9000,Paper-Manufacturers,Paper-Manufacturers,Janitors Equipment/Supplies (Whls),"$41,851,000 ",Atl-Ss-Rswl,6600 Governors Lake Pkwy,33.93275441580185,-84.25066630766972
Wings & Steak,Suk,Kang,848 Oak St SW,Atlanta,GA,(678) 515-3934,Restaurants,Restaurants,,"$266,000 ",Atl-Ss-Rswl,848 Oak St SW,33.740566333333334,-84.415649
Yama,Bong,Kang,111 Main St,Lagrange,GA,(706) 407-6365,Restaurants,Restaurants,,"$402,000 ",Lagrange,111 Main St,33.03933659299062,-85.03120802591152
Young Won Kang MD PC,Young W,Kang,4855 River Green Pkwy # 140,Duluth,GA,Not Available,Physicians & Surgeons,Physicians & Surgeons,,"$538,000 ",Atl-Ss-Rswl,4855 River Green Pkwy,34.01412349983391,-84.17223517733042
Chick-Fil-A,Jeffry,Go,1942 Howell Mill Rd NW,Atlanta,GA,(404) 351-8050,Restaurants,Restaurants,Foods-Carry Out,"$3,323,000 ",Atl-Ss-Rswl,1942 Howell Mill Rd NW,33.8076898,-84.4130756
Target,Julia,Go,875 Lville Swanee Rd # 4000,Lawrenceville,GA,(770) 338-4460,Department Stores,Department Stores,Grocers-Retail,"$27,447,000 ",Atl-Ss-Rswl,875 Lville Swanee Rd,,
American Deli,Jason,Ko,854 Cleveland Ave # 1000,East Point,GA,(404) 766-7889,Restaurants,Restaurants,Foods-Carry Out,"$599,000 ",Atl-Ss-Rswl,854 Cleveland Ave,33.681291,-84.417088
American Eagle Truckline Inc,Konstantin,Ko,6115 Abbotts Bridge Rd,Duluth,GA,(770) 696-1668,Trucking,Trucking,,"$573,000 ",Atl-Ss-Rswl,6115 Abbotts Bridge Rd,34.0073419,-84.1465789
Atlanta Taiwanese Presbyterian,Hsienli,Ko,1039 Rays Rd,Stone Mountain,GA,(404) 297-6656,Churches,Churches,,$0 ,Atl-Ss-Rswl,1039 Rays Rd,,
Azzusa Automotive,Kheang,Ko,655 Lively Ave # 302,Norcross,GA,(678) 205-0872,Automobile Repairing & Service,Automobile Repairing & Service,,"$124,000 ",Atl-Ss-Rswl,655 Lively Ave,33.93463516,-84.20892748
Cef Solutions Inc,Imdong,Ko,3700 Crestwd Pkwy NW # 1000,Duluth,GA,Not Available,Nonclassified Establishments,Nonclassified Establishments,,$0 ,Atl-Ss-Rswl,3700 Crestwd Pkwy NW,,
Cornerstone Chevron,Yeon,Ko,95 S Jeff Davis Dr,Fayetteville,GA,(770) 461-1072,Service Stations-Gasoline & Oil,Service Stations-Gasoline & Oil,Convenience Stores,"$2,715,000 ",Atl-Ss-Rswl,95 S Jeff Davis Dr,33.44719958139535,-84.45005512403101
First Class Cleaners,Hwa,Ko,9950 Jones Bridge Rd # 100,Alpharetta,GA,(770) 410-0934,Cleaners,Cleaners,,"$203,000 ",Atl-Ss-Rswl,9950 Jones Bridge Rd,,
FNS Inc,Kunhee,Ko,3235 Satellite Blvd # 400,Duluth,GA,(404) 766-6441,Trucking-Transportation Brokers,Trucking-Transportation Brokers,,"$2,060,000 ",Atl-Ss-Rswl,3235 Satellite Blvd,,
Georgia Gift,John,Ko,675 W Peachtree St NE # C17,Atlanta,GA,(404) 525-2200,Gift Shops,Gift Shops,,"$445,000 ",Atl-Ss-Rswl,675 W Peachtree St NE,33.782568,-84.383941
Hanbok Nara Inc,Chun Y,Ko,3182 Steve Reyn Blvd # 106,Duluth,GA,Not Available,Clothing-Retail,Clothing-Retail,,"$275,000 ",Atl-Ss-Rswl,3182 Steve Reyn Blvd,,
Hong Kong Restaurant,Ben,Ko,2306 Memorial Dr,Waycross,GA,(912) 285-9988,Restaurants,Restaurants,,"$296,000 ",Waycross,2306 Memorial Dr,31.203660394557822,-82.3339747414966
Hunter Technical Resources,Keun,Ko,5555 Glenrdg Conn NE # 625,Atlanta,GA,(404) 459-7373,Employment Agencies & Opportunities,Employment Agencies & Opportunities,,$0 ,Atl-Ss-Rswl,5555 Glenrdg Conn NE,,
Hunter Technical-Atlanta It,Keun,Ko,5555 Glenrdg Conn NE # 625,Atlanta,GA,(404) 459-7373,Employment Agencies & Opportunities,Employment Agencies & Opportunities,,"$583,000 ",Atl-Ss-Rswl,5555 Glenrdg Conn NE,,
Kennesaw Acupuncture Clinic,Chiuying,Ko,1815 Old 41 Hwy NW # 140,Kennesaw,GA,(678) 402-5170,Physicians & Surgeons,Physicians & Surgeons,Federal Government Contractors,"$859,000 ",Atl-Ss-Rswl,1815 Old 41 Hwy NW,33.9878064,-84.5886106
Ko Gifferd DPM,Gifferd,Ko,1364 Clifton Rd NE,Atlanta,GA,(440) 870-1381,Podiatrists,Podiatrists,,$0 ,Atl-Ss-Rswl,1364 Clifton Rd NE,33.792151000000004,-84.32208292907711
"Ko, Laura",Laura,Ko,2020 Peachtree Rd NW,Atlanta,GA,(404) 350-7743,Pharmacists,Pharmacists,,$0 ,Atl-Ss-Rswl,2020 Peachtree Rd NW,,
"Ko, Yong",Yong,Ko,200 Wisteria Dr,Gainesville,GA,(770) 219-3800,Nurses-Practitioners,Nurses-Practitioners,Nurses-Registered Rn,$0 ,Gainesville,200 Wisteria Dr,34.302805,-83.81493
LG Electronics,Kwangsoo,Ko,990 Hammond Dr # 680,Atlanta,GA,(678) 334-2413,Electronic Equipment & Supplies-Mfrs,Electronic Equipment & Supplies-Mfrs,,"$2,817,000 ",Atl-Ss-Rswl,990 Hammond Dr,33.9202102,-84.3553872
Little Szechuan,Kong,Ko,2863 Buford Hwy NE,Brookhaven,GA,(770) 451-0192,Restaurants,Restaurants,,"$206,000 ",Atl-Ss-Rswl,2863 Buford Hwy NE,,
Living Faith Lutheran Church,Sang M,Ko,1171 Atlanta Hwy,Cumming,GA,(770) 887-0184,Churches,Churches,,$0 ,Atl-Ss-Rswl,1171 Atlanta Hwy,34.1878661,-84.141513
Pearl's Tea Inc,Ruby,Ko,3131 Law Suw Rd # A2,Suwanee,GA,(678) 765-2566,Coffee & Tea,Coffee & Tea,,"$336,000 ",Atl-Ss-Rswl,3131 Law Suw Rd,,
Poke Bar,Jin,Ko,6410 N Point Pkwy # 930,Alpharetta,GA,(770) 475-1023,Restaurants,Restaurants,Foods-Carry Out,"$333,000 ",Atl-Ss-Rswl,6410 N Point Pkwy,34.04580029173112,-84.29228647439317
Prudential Financial,Sung,Ko,3500 Lenox Rd NE # 1200,Atlanta,GA,(404) 262-2600,Insurance,Insurance,,"$10,296,000 ",Atl-Ss-Rswl,3500 Lenox Rd NE,33.85211425,-84.3663542883487
Shop Design,Ruby,Ko,2625 N Berk Lk Rd NW # 600,Duluth,GA,(770) 232-4746,Interior Decorators Design & Consultants,Interior Decorators Design & Consultants,,"$583,000 ",Atl-Ss-Rswl,2625 N Berk Lk Rd NW,,
Tiger Transit Inc,Sunhee,Ko,2434 Duluth Hwy 120 # 208,Duluth,GA,(770) 676-6571,Transit Lines,Transit Lines,,"$2,414,000 ",Atl-Ss-Rswl,2434 Duluth Hwy 120,,
C2 Education,John,Koh,1100 Johnson Ferry Rd # 400,Marietta,GA,(770) 565-8184,Schools With Special Academic Education,Schools With Special Academic Education,Tutoring,$0 ,Atl-Ss-Rswl,1100 Johnson Ferry Rd,33.97741,-84.4145103
Chick-Fil-A,Joel,Koh,3156 Lawrenceville Suwanee Rd,Suwanee,GA,(770) 932-5797,Restaurants,Restaurants,Foods-Carry Out,"$3,146,000 ",Atl-Ss-Rswl,3156 Lawrenceville Suwanee Rd,34.0297482,-84.0481032
Childrens Pediatric Neurology,Sookyong,Koh,1605 Chantilly Dr NE # 300,Atlanta,GA,(404) 785-4688,Physicians & Surgeons,Physicians & Surgeons,,"$608,000 ",Atl-Ss-Rswl,1605 Chantilly Dr NE,33.827062000000005,-84.34318160000001
Color Land,Frank,Koh,4166 Buford Hwy NE # G11,Atlanta,GA,(404) 315-6214,Photo Finishing-Retail,Photo Finishing-Retail,,"$246,000 ",Atl-Ss-Rswl,4166 Buford Hwy NE,,
Evans Cleaners,Kwang,Koh,4105 River Watch Pkwy,Augusta,GA,(706) 863-8686,Cleaners,Cleaners,Alterations-Clothing,"$158,000 ",Augusta,4105 River Watch Pkwy,33.5220956,-82.021368
Georgia Retina Assoc PC,Sean S,Koh,575 Professional Dr # 330,Lawrenceville,GA,(678) 405-0922,Physicians & Surgeons,Physicians & Surgeons,,"$538,000 ",Atl-Ss-Rswl,575 Professional Dr,33.963461,-84.01217
Georgia Retina Assoc PC,Sean S,Koh,175 Country Club Dr # 300d,Stockbridge,GA,(770) 907-9400,Physicians & Surgeons,Physicians & Surgeons,Opticians,"$1,298,000 ",Atl-Ss-Rswl,175 Country Club Dr,33.50608230365694,-84.22699077301017
Global Lending,Eugene,Koh,4584 Chamblee Dunwoody Rd,Atlanta,GA,(770) 936-8818,Real Estate Loans,Real Estate Loans,Loans,"$1,857,000 ",Atl-Ss-Rswl,4584 Chamblee Dunwoody Rd,,
Go Auto Body,Chung R,Koh,6290 Buford Hwy # 400,Norcross,GA,(770) 729-0066,Automobile Body-Repairing & Painting,Automobile Body-Repairing & Painting,,"$139,000 ",Atl-Ss-Rswl,6290 Buford Hwy,33.9401535,-84.2099114
KOH Young America Inc,Kwangill,Koh,1950 Evergreen Blvd # 200,Duluth,GA,(480) 403-5000,Communications Services-Common Carriers,Communications Services-Common Carriers,,"$5,659,000 ",Atl-Ss-Rswl,1950 Evergreen Blvd,,
New Image Dental Group,Joon Ho,Koh,1110 Talus St # 100,Bogart,GA,(770) 725-7377,Dentists,Dentists,,"$356,000 ",Athens-Clark,1110 Talus St,,
Teamone Logistics LLC,Richard,Koh,960 North Point Pkwy # 300,Alpharetta,GA,(770) 232-9902,Transportation Consultants,Transportation Consultants,,"$2,201,000 ",Atl-Ss-Rswl,960 North Point Pkwy,34.07825876356358,-84.26046842787454
United Premier Funding LLC,Calvin,Koh,2645 N Berkeley Lake Rd NW # 1,Duluth,GA,(678) 824-8633,Real Estate Loans,Real Estate Loans,,"$2,328,000 ",Atl-Ss-Rswl,2645 N Berkeley Lake Rd NW,,
Zion International Mission Ctr,Jaedong,Koh,45 Old Peachtree Rd NE # 300,Suwanee,GA,(678) 629-3822,Organizations,Organizations,,$0 ,Atl-Ss-Rswl,45 Old Peachtree Rd NE,34.034143,-84.039656
Accenture Limited,Cliffton,Goh,75 5th St NW # 1100,Atlanta,GA,(678) 657-8000,Business Management Consultants,Business Management Consultants,Data Systems Consultants & Designers,"$940,000 ",Atl-Ss-Rswl,75 5th St NW,33.7770241,-84.389256
Boba Tea Tok,Misun,Goh,3705 Old Norcross Rd # 100,Duluth,GA,(678) 395-3388,Coffee & Tea,Coffee & Tea,,"$336,000 ",Atl-Ss-Rswl,3705 Old Norcross Rd,,
K Town Wings,Chang,Goh,906 Avenue E,West Point,GA,(706) 645-8696,Restaurants,Restaurants,,"$81,000 ",Lagrange,906 Avenue E,32.87593369387755,-85.17433108163264
Mol Consolidation Svc LTD,Pek Y,Goh,2727 Pace Fy Rd SE # 2-1680,Atlanta,GA,(770) 738-5486,Freight-Consolidating,Freight-Consolidating,,"$2,279,000 ",Atl-Ss-Rswl,2727 Pace Fy Rd SE,,
Target Optical,Adeline,Goh,2400 N Druid Hills Rd NE,Atlanta,GA,(404) 720-7721,Optical Goods-Retail,Optical Goods-Retail,,$0 ,Atl-Ss-Rswl,2400 N Druid Hills Rd NE,,
Unified Premier Women's Care,Diane C,Goh,574 Church St NE,Marietta,GA,(770) 427-0285,Physicians & Surgeons,Physicians & Surgeons,,"$516,000 ",Atl-Ss-Rswl,574 Church St NE,33.9658305,-84.54995550000001
Alimera Sciences Inc,Garheng,Kong,6310 Town Sq # 400,Alpharetta,GA,(678) 990-5740,Pharmaceutical Preparation (Mfrs),Pharmaceutical Preparation (Mfrs),,$0 ,Atl-Ss-Rswl,6310 Town Sq,,
All Star Financial Group,Kai,Kong,365 Northridge Rd # 200,Atlanta,GA,(404) 522-3898,Insurance,Insurance,Bonds-Surety & Fidelity,"$17,503,000 ",Atl-Ss-Rswl,365 Northridge Rd,,
BBQ Corner,Michelle,Kong,5385 New Peachtree Rd,Chamblee,GA,(770) 451-7277,Restaurants,Restaurants,,"$258,000 ",Atl-Ss-Rswl,5385 New Peachtree Rd,33.89054730769231,-84.30048569230769
Best Country Donuts,Vanna,Kong,4746 Jonesboro Rd,Forest Park,GA,(404) 361-7108,Doughnuts,Doughnuts,,"$66,000 ",Atl-Ss-Rswl,4746 Jonesboro Rd,33.626336775510204,-84.35514893877551
Broadway Enterprises,Kortney,Kong,2970 Shawnee Ridge Ct # 300,Suwanee,GA,(770) 497-8777,Beauty Salons-Equipment & Supplies (Whls),Beauty Salons-Equipment & Supplies (Whls),Real Estate,"$5,294,000 ",Atl-Ss-Rswl,2970 Shawnee Ridge Ct,,
Carter Presidential Ctr,Charles,Kong,453 John Lewis Freedom Pkwy NE,Atlanta,GA,(404) 331-3900,Non-Profit Organizations,Non-Profit Organizations,,$0 ,Atl-Ss-Rswl,453 John Lewis Freedom Pkwy NE,33.767783941860465,-84.35867612790697
Classic Alteration,Yoo,Kong,316 Willow Bend Rd,Peachtree City,GA,(770) 631-1175,Alterations-Clothing,Alterations-Clothing,,"$80,000 ",Atl-Ss-Rswl,316 Willow Bend Rd,33.399729959183674,-84.58593502040816
Delta Air Lines Inc,Laura,Kong,1001 International Blvd,Atlanta,GA,(404) 761-6546,Airline Companies,Airline Companies,Air Transportation-Scheduled,"$14,201,000 ",Atl-Ss-Rswl,1001 International Blvd,33.6618399,-84.4217431
Econo Insurance Agency,Peter,Kong,530 Hglnd Sta Dr # 2007,Suwanee,GA,(404) 578-4558,Insurance Agents Brokers & Service,Insurance Agents Brokers & Service,Insurance-Homeowners,"$649,000 ",Atl-Ss-Rswl,530 Hglnd Sta Dr,,
Elecom Systems Inc,Fanqun,Kong,5952 Pch Ind Blvd # 10,Norcross,GA,(770) 441-3388,Federal Government Contractors,Federal Government Contractors,,$0 ,Atl-Ss-Rswl,5952 Pch Ind Blvd,,
Great Wall,Yim,Kong,500 Furys Ferry Rd # 104,Martinez,GA,(706) 855-8851,Restaurants,Restaurants,,"$139,000 ",Augusta,500 Furys Ferry Rd,33.536386,-82.079018
Greenberg Traurig,Maria,Kong,3333 Piedmont Rd NE # 2500,Atlanta,GA,(678) 553-2100,Attorneys,Attorneys,,"$11,744,000 ",Atl-Ss-Rswl,3333 Piedmont Rd NE,33.8460162,-84.37197950372608
Greenberg Traurig LLP,Maria,Kong,1033 Jefferson St NW,Atlanta,GA,(678) 651-1760,Attorneys,Attorneys,,"$22,292,000 ",Atl-Ss-Rswl,1033 Jefferson St NW,33.77834525,-84.42109086212253
Hana Plus Pharmacy,Julie K,Kong,3585 Pchtr Ind Blvd # 158,Duluth,GA,(770) 828-7576,Pharmacies,Pharmacies,,"$1,521,000 ",Atl-Ss-Rswl,3585 Pchtr Ind Blvd,,
Hong Kong,Sai K,Kong,3718 Mike Padgett Hwy,Augusta,GA,(706) 792-9888,Restaurants,Restaurants,,"$102,000 ",Augusta,3718 Mike Padgett Hwy,33.36681851254012,-81.99587385827505
Hong Kong Star,Michelle,Kong,3451 Cobb Pkwy NW # 9,Acworth,GA,(770) 917-0688,Restaurants,Restaurants,,"$324,000 ",Atl-Ss-Rswl,3451 Cobb Pkwy NW,,
Hong Kong Star Chinese Cuisine,Michelle,Kong,4719 Lower Roswell Rd # 110,Marietta,GA,(770) 509-2129,Restaurants,Restaurants,,"$539,000 ",Atl-Ss-Rswl,4719 Lower Roswell Rd,33.9520144,-84.5017914
Keyston Brothers,Daniel,Kong,5600 Oakbrook Pkwy # 290,Norcross,GA,(770) 209-7890,Automobile Seatcovers Tops & Upholstery,Automobile Seatcovers Tops & Upholstery,Car Trimming & Upholstery Mfrs,"$1,660,000 ",Atl-Ss-Rswl,5600 Oakbrook Pkwy,,
Kong Andrew Paul MD,Andrew Paul,Kong,501 Redmond Rd NW,Rome,GA,(706) 802-3020,Physicians & Surgeons,Physicians & Surgeons,,"$531,000 ",Rome,501 Redmond Rd NW,,
Kong Philip Young,Philip Y,Kong,247 Union Point St,Lexington,GA,(706) 743-8171,Nurses-Practitioners,Nurses-Practitioners,,$0 ,Athens-Clark,247 Union Point St,,
Kong's Body Shop,Sung I,Kong,2212 Cheshire Bridge Rd NE,Atlanta,GA,(404) 633-4266,Automobile Body-Repairing & Painting,Automobile Body-Repairing & Painting,,"$320,000 ",Atl-Ss-Rswl,2212 Cheshire Bridge Rd NE,,
"Kong, Lokhana",Lokhana,Kong,50 Kelly Rd,Mcdonough,GA,(770) 957-1887,Nurses-Practitioners,Nurses-Practitioners,,"$57,000 ",Atl-Ss-Rswl,50 Kelly Rd,33.44471714443101,-84.18442597664433
"Kong, Philip Y",Philip Y,Kong,127 Telfair St,Augusta,GA,(706) 922-0600,Nurses-Practitioners,Nurses-Practitioners,,"$56,000 ",Augusta,127 Telfair St,33.46697650050448,-81.95188497365957
Landis+gyr Inc,Stephen,Kong,30000 Mill Creek Ave # 100,Alpharetta,GA,(678) 258-1500,Energy Management Systems & Products,Energy Management Systems & Products,Electric Companies,$0 ,Atl-Ss-Rswl,30000 Mill Creek Ave,34.0501703,-84.27761598833706
Liquorgate,S,Kong,1740 Zebulon Rd,Griffin,GA,(770) 229-5686,Liquors-Retail,Liquors-Retail,,"$712,000 ",Atl-Ss-Rswl,1740 Zebulon Rd,,
Promiseone Bank,Chris,Kong,2385 Pleasant Hill Rd,Duluth,GA,(678) 385-0808,Banks,Banks,,"$2,115,000 ",Atl-Ss-Rswl,2385 Pleasant Hill Rd,34.0045308,-84.1700046
Rod's ATV,Grace,Kong,4800 Flat Shoals Pkwy,Decatur,GA,(770) 987-2800,Television & Radio-Service/Repair,Television & Radio-Service/Repair,Video Equipment-Service & Repair,"$66,000 ",Atl-Ss-Rswl,4800 Flat Shoals Pkwy,,
Samwon Corp,Yong Hi,Kong,2967 W Mount Tabor Cir,Duluth,GA,Not Available,Software/Application/Platform Publishing,Software/Application/Platform Publishing,,"$4,190,000 ",Atl-Ss-Rswl,2967 W Mount Tabor Cir,,
Song's Garden,Kin Mei,Kong,4451 Towne Lake Pkwy # 320,Woodstock,GA,(770) 928-8387,Restaurants,Restaurants,,"$133,000 ",Atl-Ss-Rswl,4451 Towne Lake Pkwy,34.1025129,-84.530939
SUSHI Cafe,Jinkuk,Kong,3294 Peachtree Industrial Blvd,Duluth,GA,(470) 539-4062,Restaurants,Restaurants,,"$315,000 ",Atl-Ss-Rswl,3294 Peachtree Industrial Blvd,34.0234817,-84.114951
Zoe Center For Pediatric,Basil,Kong,3033 Williams Rd,Columbus,GA,(706) 221-7139,Clinics,Clinics,Physicians & Surgeons,"$1,901,000 ",Columbus,3033 Williams Rd,32.564622,-84.945822
Zoe Pediatrics,Freddie,Kong,1110 13th St,Columbus,GA,(706) 641-2462,Physicians & Surgeons,Physicians & Surgeons,Health Screening & Vaccination Services,"$2,444,000 ",Columbus,1110 13th St,32.470416,-84.97699166666668
Zoe Pediatrics,Waine,Kong,210 Hannahs Mill Rd,Thomaston,GA,(706) 938-0990,Physicians & Surgeons,Physicians & Surgeons,,"$3,262,000 ",Thomaston,210 Hannahs Mill Rd,32.9024103650541,-84.33999110182002
Zoe Pediatrics,Stephanie H,Kong,210 Hannahs Mill Rd,Thomaston,GA,(706) 938-0990,Physicians & Surgeons,Physicians & Surgeons,,"$392,000 ",Thomaston,210 Hannahs Mill Rd,32.9024103650541,-84.33999110182002
Aspen Dental,Euiyoung,Kwak,4373 J L Smith Pkwy # 105,Hiram,GA,(678) 224-9244,Dentists,Dentists,,"$530,000 ",Atl-Ss-Rswl,4373 J L Smith Pkwy,,
Foresite Group,Seryun,Kwak,3740 Davinci Ct # 100,Peachtree Corners,GA,(770) 368-1399,Engineering,Engineering,Engineers-Civil,"$7,331,000 ",Atl-Ss-Rswl,3740 Davinci Ct,33.97637475243709,-84.21441974998358
Georgetown Cleaners,Bo,Kwak,4490 Chambl Dunwdy Rd # B,Dunwoody,GA,(770) 458-5976,Cleaners,Cleaners,,"$69,000 ",Atl-Ss-Rswl,4490 Chambl Dunwdy Rd,,
KWAK Myoung Kwan MD,Myoung K,Kwak,380 Hospital Dr # 430,Macon,GA,(478) 751-0181,Physicians & Surgeons,Physicians & Surgeons,,"$587,000 ",Macon,380 Hospital Dr,32.84565828884281,-83.61843020632718
KWAK Orthodontics,Sang C,Kwak,2700 N Berk Lk Rd NW # 110,Duluth,GA,(770) 220-0088,Dentists,Dentists,,"$601,000 ",Atl-Ss-Rswl,2700 N Berk Lk Rd NW,,
KWAK Orthodontics,Nicole,Kwak,2700 N Berkeley Lake Rd NW # 1,Duluth,GA,(770) 220-0088,Dentists,Dentists,,"$601,000 ",Atl-Ss-Rswl,2700 N Berkeley Lake Rd NW,,
"KWAK, Henry Aty",Henry,Kwak,5725 Buford Hwy NE # 219,Atlanta,GA,(770) 455-8141,Attorneys,Attorneys,,"$408,000 ",Atl-Ss-Rswl,5725 Buford Hwy NE,,
"KWAK, Sang",Sang,Kwak,7775 Mcginnis Ferry Rd # 202,Johns Creek,GA,(470) 719-0213,Dentists,Dentists,,$0 ,Atl-Ss-Rswl,7775 Mcginnis Ferry Rd,34.05531587172088,-84.12991030912747
"KWAK, Yewon",Yewon,Kwak,5670 Ptree Dun Rd NE # 1000,Atlanta,GA,(404) 255-1930,Physicians & Surgeons,Physicians & Surgeons,,$0 ,Atl-Ss-Rswl,5670 Ptree Dun Rd NE,,
Mark Tec,Myung,Kwak,226 Grace St,Dalton,GA,(706) 529-4818,Processing (Mfrs),Processing (Mfrs),,"$4,030,000 ",Dalton,226 Grace St,34.75424984904976,-84.96829769569543
Old Atlanta Club Homeowners,Bobby,Kwak,5745 Olde Atlanta Pkwy,Suwanee,GA,(770) 418-0268,Clubs,Clubs,,$0 ,Atl-Ss-Rswl,5745 Olde Atlanta Pkwy,,
Shinhan Bank America,Woohong,Kwak,2170 Pleasant Hill Rd,Duluth,GA,(678) 512-8200,Banks,Banks,,"$2,115,000 ",Atl-Ss-Rswl,2170 Pleasant Hill Rd,34.0045308,-84.1700046
Stonebridge Family Dentistry,Sang Bum,Kwak,4690 Hog Mountain Rd # H105,Flowery Branch,GA,(770) 967-1001,Dentists,Dentists,,"$585,000 ",Gainesville,4690 Hog Mountain Rd,34.17898123651796,-83.90739962082257
Swan Cleaner,Pob,Kwak,1995 Windy Hill Rd SE,Smyrna,GA,(770) 432-0205,Cleaners,Cleaners,,"$215,000 ",Atl-Ss-Rswl,1995 Windy Hill Rd SE,33.8982127,-84.496582
US Imports,Kyung,Kwak,3400 Oakcliff Rd # A7,Atlanta,GA,(770) 455-0001,Importers (Whls),Importers (Whls),Beauty Salons-Equipment & Supplies (Whls),"$4,562,000 ",Atl-Ss-Rswl,3400 Oakcliff Rd,33.7586724,-84.49908747619108
Walgreens,Keesoo,Kwak,2220 Hewatt Rd,Snellville,GA,(770) 978-6276,Pharmacies,Pharmacies,Variety Stores,"$652,000 ",Atl-Ss-Rswl,2220 Hewatt Rd,,
Altisource Portfolio Solutions,Paul,Koo,1000 Abernathy Rd # 200,Atlanta,GA,(770) 612-7007,Collection Agencies,Collection Agencies,Auctioneers,"$1,905,000 ",Atl-Ss-Rswl,1000 Abernathy Rd,33.9348521,-84.35462570825472
Apple Tree Learning Ctr,Hailey,Koo,3296 Summit Rdg Pkwy # 1410,Duluth,GA,(770) 814-0566,Child Care Service,Child Care Service,,"$317,000 ",Atl-Ss-Rswl,3296 Summit Rdg Pkwy,33.9878075455603,-84.16611441062432
Atlanta North Dermatology,Jihyun,Koo,100 Stoneforest Dr # 320,Woodstock,GA,(770) 516-5199,Dermatologists,Dermatologists,Physicians & Surgeons,"$5,683,000 ",Atl-Ss-Rswl,100 Stoneforest Dr,34.103834,-84.538936
Beauty Mart Supplies,Richard,Koo,1905 Scenic Hwy N # 8050,Snellville,GA,(770) 978-6678,Beauty Salons,Beauty Salons,Beauty Salons-Equipment & Supplies (Whls),"$129,000 ",Atl-Ss-Rswl,1905 Scenic Hwy N,,
K-9 CONSTRUCTION LLC,Kyochan,Koo,2316 Bellyard Dr,Buford,GA,Not Available,Construction Companies,Construction Companies,,"$711,000 ",Atl-Ss-Rswl,2316 Bellyard Dr,,
Koo & Sobotta,Andrew,Koo,3775 Venture Dr # P200,Duluth,GA,(770) 476-9166,Attorneys,Attorneys,,"$392,000 ",Atl-Ss-Rswl,3775 Venture Dr,,
Koo Denise Tze-WEN MD,Denise T,Koo,423 Mill Creek Bnd NE,Atlanta,GA,Not Available,Physicians & Surgeons,Physicians & Surgeons,,$0 ,Atl-Ss-Rswl,423 Mill Creek Bnd NE,,
"Koo, Grace Kim",Grace Kim,Koo,514 W Maple St # 306,Cumming,GA,(678) 455-9885,Nurses-Practitioners,Nurses-Practitioners,,"$66,000 ",Atl-Ss-Rswl,514 W Maple St,34.20661777990021,-84.14781421923637
"Koo, Jina",Jina,Koo,1950 Buford Hwy,Buford,GA,(770) 945-7286,Pharmacists,Pharmacists,,"$49,000 ",Atl-Ss-Rswl,1950 Buford Hwy,34.107431530612246,-84.00207567346939
"Koo, Johan Do",Johan,Koo,73 Maxwell Ln,Dahlonega,GA,(770) 219-9630,Physicians & Surgeons,Physicians & Surgeons,,"$720,000 ",,73 Maxwell Ln,34.4708104,-83.9682561
"Koo, Johan Do",Johan,Koo,777 Hemlock St # 104,Macon,GA,(478) 633-7550,Physicians & Surgeons,Physicians & Surgeons,,"$587,000 ",Macon,777 Hemlock St,32.8338837,-83.63587671157228
Panda Express,Candy,Koo,2707 Highway 54 # 15,Peachtree City,GA,(770) 632-1801,Restaurants,Restaurants,Foods-Carry Out,"$554,000 ",Atl-Ss-Rswl,2707 Highway 54,,
Pet's Top,Booyoung,Koo,11877 Douglas Rd # 107,Alpharetta,GA,(678) 502-7116,Pet Washing & Grooming,Pet Washing & Grooming,Pet Boarding Sitting & Kennels,"$61,000 ",Atl-Ss-Rswl,11877 Douglas Rd,34.0706223,-84.20764007206962
RKPC Service,Roger,Koo,2011 Palladium Dr NW,Kennesaw,GA,(770) 714-6683,Computers-Service & Repair,Computers-Service & Repair,Website Design Service,"$144,000 ",Atl-Ss-Rswl,2011 Palladium Dr NW,,
Atlanta Realty Central,Yangsook,Ku,2550 Pleasant Hill Rd # 440,Duluth,GA,(678) 871-7879,Real Estate,Real Estate,,"$212,000 ",Atl-Ss-Rswl,2550 Pleasant Hill Rd,34.0045308,-84.1700046
Buildingreports,Joanna,Ku,1325 Satellit Blvd NW # 1607,Suwanee,GA,(770) 495-1993,Website Hosting,Website Hosting,Advertising-Computer,"$1,445,000 ",Atl-Ss-Rswl,1325 Satellit Blvd NW,,
Furniture Express,Yung-Chein,Ku,5210 Buford Hwy NE,Doraville,GA,(770) 454-7898,Furniture-Dealers-Retail,Furniture-Dealers-Retail,Furniture-Childrens,"$962,000 ",Atl-Ss-Rswl,5210 Buford Hwy NE,,
Ku Benson MD,Benson,Ku,12 Executive Park Dr NE # 200,Atlanta,GA,(404) 778-5526,Physicians & Surgeons,Physicians & Surgeons,,$0 ,Atl-Ss-Rswl,12 Executive Park Dr NE,33.827942050000004,-84.33780176463812
Kus Inc,Sung O,Ku,2937 Veterans Memorial Hwy SW,Austell,GA,Not Available,Nonclassified Establishments,Nonclassified Establishments,,$0 ,Atl-Ss-Rswl,2937 Veterans Memorial Hwy SW,33.807696690805734,-84.63621175311549
Maytag Homestyle Laundry,Sung,Ku,2937 Bankhead Hwy SW,Austell,GA,(770) 948-1233,Laundries,Laundries,Alterations-Clothing,"$125,000 ",Atl-Ss-Rswl,2937 Bankhead Hwy SW,,
MD Innovate,Sarah,Ku,201 W Ponce D L Ave # 317,Decatur,GA,(404) 210-7881,Electronic Equipment & Supplies-Retail,Electronic Equipment & Supplies-Retail,,"$1,027,000 ",Atl-Ss-Rswl,201 W Ponce D L Ave,,
Plato's Closet,Adoa,Ku,2480 Briarcliff Rd NE # 2,Atlanta,GA,(404) 929-0224,Clothing-Used,Clothing-Used,Clothing-Retail,"$6,368,000 ",Atl-Ss-Rswl,2480 Briarcliff Rd NE,33.8282788,-84.3330076
Gwinnett Medical Ctr,David J,Goo,1000 Medical Center Blvd,Lawrenceville,GA,(678) 312-1000,Physicians & Surgeons,Physicians & Surgeons,,"$538,000 ",Atl-Ss-Rswl,1000 Medical Center Blvd,33.96307405,-84.01768791762677
Yu Spa & Massage,Lisa,Goo,552 W Oglethorpe Hwy # 104,Hinesville,GA,(912) 877-0488,Health Spas,Health Spas,,"$28,000 ",Hinesville,552 W Oglethorpe Hwy,31.834598231026472,-81.59612607627611
Won 11 Internet Cafe,Jeonga,Guk,2790 Lawrenceville Suwanee Rd,Suwanee,GA,(678) 907-4463,Internet Service,Internet Service,,"$289,000 ",Atl-Ss-Rswl,2790 Lawrenceville Suwanee Rd,34.0232799,-84.0450247
Voya Investment Management LLC,John,Kook,5780 Powers Ferry Rd # 300,Atlanta,GA,(770) 690-4600,Investments,Investments,Investment Management,$0 ,Atl-Ss-Rswl,5780 Powers Ferry Rd,,
American Deli,John,Kwon,5656 Jonesboro Rd # 108,Morrow,GA,(770) 960-7525,Restaurants,Restaurants,Foods-Carry Out,"$155,000 ",Atl-Ss-Rswl,5656 Jonesboro Rd,33.554662,-84.3469811
Army National Guard,Bobby,Kwon,88 Milledge Rd,Augusta,GA,(478) 951-4278,State Government-National Security,State Government-National Security,Government Offices-State,$0 ,Augusta,88 Milledge Rd,33.493317450000006,-82.00260914293192
Best Cleaners & Laundry,H,Kwon,11434 Abercorn St,Savannah,GA,(912) 232-1171,Drapery & Curtain Cleaners,Drapery & Curtain Cleaners,Cleaners,"$625,000 ",Savannah,11434 Abercorn St,31.981527965011907,-81.14736013406431
Best Flower,Soon,Kwon,2106 Pleasant Hill Rd # A9,Duluth,GA,(404) 704-4440,Florists-Retail,Florists-Retail,,"$175,000 ",Atl-Ss-Rswl,2106 Pleasant Hill Rd,33.9598211,-84.1260879
BNX Shipping Inc,Eugene,Kwon,3460 Summit Ridge Pkwy # 601,Duluth,GA,(404) 530-2343,Freight-Forwarding,Freight-Forwarding,,"$649,000 ",Atl-Ss-Rswl,3460 Summit Ridge Pkwy,33.98692028772565,-84.16900173459133
BP,David,Kwon,5418 Chamblee Dunwoody Rd,Atlanta,GA,(770) 512-8330,Service Stations-Gasoline & Oil,Service Stations-Gasoline & Oil,Convenience Stores,"$5,642,000 ",Atl-Ss-Rswl,5418 Chamblee Dunwoody Rd,,
Buena Vista RD Package,Sung Gun,Kwon,4740 Buena Vista Rd,Columbus,GA,(706) 507-3296,Liquors-Retail,Liquors-Retail,,"$678,000 ",Columbus,4740 Buena Vista Rd,32.46715533906914,-84.91374869716418
Builders Insurance Group,Lisa,Kwon,2410 Paces Ferry Rd SE # 300,Atlanta,GA,(678) 309-4000,Insurance,Insurance,,"$28,754,000 ",Atl-Ss-Rswl,2410 Paces Ferry Rd SE,33.8613731,-84.4833206
Chevron Food Mart,William,Kwon,5300 Roswell Rd,Sandy Springs,GA,(404) 252-6321,Service Stations-Gasoline & Oil,Service Stations-Gasoline & Oil,Convenience Stores,"$5,159,000 ",Atl-Ss-Rswl,5300 Roswell Rd,33.899532,-84.380904
Cloud 8 Vapes LLC,Richard,Kwon,3292 Cheshire Bridge Rd NE,Atlanta,GA,(404) 944-0413,Smoke Shops & Supplies,Smoke Shops & Supplies,,"$442,000 ",Atl-Ss-Rswl,3292 Cheshire Bridge Rd NE,,
Cosmital Inc,Sam,Kwon,114 Gold Springs Ct,Canton,GA,(404) 704-6309,Federal Government Contractors,Federal Government Contractors,,$0 ,Atl-Ss-Rswl,114 Gold Springs Ct,,
Crystal Car Wash,K S,Kwon,1639 Gordon Hwy,Augusta,GA,(706) 922-3238,Car Washing & Polishing,Car Washing & Polishing,,"$411,000 ",Augusta,1639 Gordon Hwy,33.43933854545455,-82.01896245454546
Cyintech Inc,Sam,Kwon,335 Parkway 575 # 310,Woodstock,GA,(770) 924-7500,Business Management Consultants,Business Management Consultants,Federal Government Contractors,"$202,000 ",Atl-Ss-Rswl,335 Parkway 575,34.08892135163216,-84.53135670021659
East Rome Beverage,Ki,Kwon,1800 Dean Ave SE,Rome,GA,(706) 235-4166,Liquors-Retail,Liquors-Retail,,"$1,293,000 ",Rome,1800 Dean Ave SE,,
EIS Inc,Robert,Kwon,2018 Pow Fy Rd SE # 500,Atlanta,GA,(678) 255-3600,Electric Equipment & Supplies-Wholesale,Electric Equipment & Supplies-Wholesale,Electric Supplies-Manufacturers,$0 ,Atl-Ss-Rswl,2018 Pow Fy Rd SE,,
Georgia Clinic,Yong K,Kwon,5677 Buford Hwy NE # 210,Doraville,GA,(678) 547-1045,Physicians Assistants,Physicians Assistants,,"$48,000 ",Atl-Ss-Rswl,5677 Buford Hwy NE,,
Georgia Clinic,Noelle,Kwon,5677 Buford Hwy NE # 210,Doraville,GA,(678) 547-1045,Physicians & Surgeons,Physicians & Surgeons,,"$2,024,000 ",Atl-Ss-Rswl,5677 Buford Hwy NE,,
Guy Carpenter & Co LLC,Hansol,Kwon,3560 Lenox Rd NE # 2650,Atlanta,GA,(404) 926-1800,Carpenters,Carpenters,Insurance,"$4,791,000 ",Atl-Ss-Rswl,3560 Lenox Rd NE,33.851128200000005,-84.36660450329364
Gwinnett Automotive Svc Inc,David,Kwon,3325 Satellite Blvd,Duluth,GA,(678) 957-5021,Automobile Repairing & Service,Automobile Repairing & Service,,"$370,000 ",Atl-Ss-Rswl,3325 Satellite Blvd,,
Gwinnett Place Honda,David,Kwon,3325 Satellite Blvd,Duluth,GA,(678) 575-5000,Automobile Dealers-New Cars,Automobile Dealers-New Cars,Truck-Dealers-New,"$30,621,000 ",Atl-Ss-Rswl,3325 Satellite Blvd,,
Intercontinental Commercial,Kun T,Kwon,3555 Koger Blvd # 150,Duluth,GA,Not Available,Services NEC,Services NEC,,"$248,000 ",Atl-Ss-Rswl,3555 Koger Blvd,,
K P I & CO LLC,Linette,Kwon,7130 Buford Hwy NE # A-130,Atlanta,GA,(470) 395-5163,Real Estate,Real Estate,,"$318,000 ",Atl-Ss-Rswl,7130 Buford Hwy NE,,
Kliebe Education,Yuon,Kwon,3294 Pchtr Ind Blvd # 2000,Duluth,GA,(678) 805-8799,Educational Service-Business,Educational Service-Business,,$0 ,Atl-Ss-Rswl,3294 Pchtr Ind Blvd,,
KWON Grace E DMD,Grace E,Kwon,3590 Braselton Hwy # 201,Dacula,GA,(678) 714-7575,Dentists,Dentists,,$0 ,Atl-Ss-Rswl,3590 Braselton Hwy,,
KWON Hyun Jung,Hyun J,Kwon,2467 Old Cornelia Hwy,Gainesville,GA,(770) 910-9196,Nurses-Practitioners,Nurses-Practitioners,,$0 ,Gainesville,2467 Old Cornelia Hwy,34.313367734050864,-83.77501171891157
KWON Ji Hye DO,Ji H,Kwon,1000 Medical Center Blvd,Lawrenceville,GA,(678) 312-1000,Physicians & Surgeons,Physicians & Surgeons,,$0 ,Atl-Ss-Rswl,1000 Medical Center Blvd,33.96307405,-84.01768791762677
KWON Physical Therapy,Kiseok,Kwon,3473 Satellite Blvd # 108n,Duluth,GA,(470) 550-1271,Physical Therapists,Physical Therapists,,"$241,000 ",Atl-Ss-Rswl,3473 Satellite Blvd,,
KWON Samuel S DMD,Samuel S,Kwon,4009 Winder Hwy # 200,Flowery Branch,GA,(678) 714-7575,Dentists,Dentists,,"$585,000 ",Gainesville,4009 Winder Hwy,,
"KWON, Gloria H DDS",Gloria H,Kwon,7101 Hoff St,Fort Benning,GA,(706) 544-4795,Dentists,Dentists,,"$310,000 ",Columbus,7101 Hoff St,,
"KWON, In Ho DDS",In Ho,Kwon,Bldg 38717th 38 St,Augusta,GA,Not Available,Dentists,Dentists,,"$133,000 ",Augusta,Bldg 38717th 38 St,,
"KWON, Kiseok Dpt",Kiseok,Kwon,3473 Satellite Blvd,Duluth,GA,(909) 747-8205,Physical Therapists,Physical Therapists,,"$49,000 ",Atl-Ss-Rswl,3473 Satellite Blvd,,
"KWON, Paul",Paul,Kwon,8725 Roswell Rd # G,Sandy Springs,GA,(770) 640-5956,Pharmacists,Pharmacists,,$0 ,Atl-Ss-Rswl,8725 Roswell Rd,33.99388725,-84.35084746239158
"KWON, Soonji",Soonji,Kwon,9925 Haynes Bridge Rd,Alpharetta,GA,(770) 751-7986,Pharmacists,Pharmacists,,"$75,000 ",Atl-Ss-Rswl,9925 Haynes Bridge Rd,34.022332,-84.2679905
Metro By T-Mobile Auth Rtlr,Jeremy,Kwon,169 Pottery Factory Dr # 141,Commerce,GA,(706) 335-9688,Cellular Telephones (Services),Cellular Telephones (Services),Authorized Retailer-Cellular Services,"$1,089,000 ",,169 Pottery Factory Dr,,
Moohan Martial Arts,Minsun,Kwon,5886 East Lake Pkwy,Mcdonough,GA,(770) 320-8858,Martial Arts Instruction,Martial Arts Instruction,,"$98,000 ",Atl-Ss-Rswl,5886 East Lake Pkwy,,
N C Contracting LLC,Eun S,Kwon,1311 Azalea Brook Dr,Lawrenceville,GA,(678) 395-3111,Contractors,Contractors,,"$335,000 ",Atl-Ss-Rswl,1311 Azalea Brook Dr,,
Nargo,Young,Kwon,500 Callaway Church Rd,Lagrange,GA,(706) 298-6492,Leasing Equipment,Leasing Equipment,,"$622,000 ",Lagrange,500 Callaway Church Rd,33.02670507631664,-84.96531101710525
New Church Of Atlanta,Ohbyung,Kwon,2845 Amwiler Rd,Atlanta,GA,(770) 447-6663,Churches,Churches,,$0 ,Atl-Ss-Rswl,2845 Amwiler Rd,,
Noroobee Chemical America Inc,Soonmin,Kwon,560 Old Ptree Rd NW # 100,Suwanee,GA,(770) 682-8885,Chemicals (Whls),Chemicals (Whls),Plastics-Fabrics/Film & Etc Producer,"$19,371,000 ",Atl-Ss-Rswl,560 Old Ptree Rd NW,,
PK Restaurant Group,David,Kwon,5485 Bethelview Rd,Cumming,GA,(770) 406-8716,Restaurant Management,Restaurant Management,,$0 ,Atl-Ss-Rswl,5485 Bethelview Rd,,
Pwi Partners Of Lilburn GA Inc,Dae,Kwon,4805 Lawrenceville Hwy NW # 40,Lilburn,GA,(678) 395-4994,Business Management Consultants,Business Management Consultants,,"$225,000 ",Atl-Ss-Rswl,4805 Lawrenceville Hwy NW,,
Redeemer Day School,Jennifer,Kwon,3585 Northside Pkwy NW,Atlanta,GA,(404) 985-6005,Schools,Schools,,$0 ,Atl-Ss-Rswl,3585 Northside Pkwy NW,33.85090416216216,-84.43031918918919
Sams Auto Body & Collision,Kyung I,Kwon,4921 Canton Rd,Marietta,GA,(678) 445-5356,Automobile Body-Repairing & Painting,Automobile Body-Repairing & Painting,,"$287,000 ",Atl-Ss-Rswl,4921 Canton Rd,34.0049549,-84.525875
Sharon Tailoring-Cstm Altrtns,Hyun,Kwon,1680 Mall Of Georgia Blvd # 17,Buford,GA,(770) 831-7711,Cleaners,Cleaners,Alterations-Clothing,"$129,000 ",Atl-Ss-Rswl,1680 Mall Of Georgia Blvd,34.062804400000005,-83.99394192398395
Shoe Doctor,Joon,Kwon,100 Mall Blvd,Brunswick,GA,(912) 466-0430,Shoe & Boot Repairing,Shoe & Boot Repairing,,"$121,000 ",Brunswick,100 Mall Blvd,,
South City Partners LLC,Hobart,Kwon,3715 Northside Pkwy NW # 1-3,Atlanta,GA,(404) 287-0063,Nonclassified Establishments,Nonclassified Establishments,,$0 ,Atl-Ss-Rswl,3715 Northside Pkwy NW,33.8569005,-84.4296644
Trust US Realty,Soonsang,Kwon,3761 Venture Dr # 210,Duluth,GA,(770) 622-9455,Real Estate,Real Estate,,"$318,000 ",Atl-Ss-Rswl,3761 Venture Dr,,
US American Deli,Claire,Kwon,3935 Lavista Rd # B,Tucker,GA,(770) 414-6046,Restaurants,Restaurants,,"$155,000 ",Atl-Ss-Rswl,3935 Lavista Rd,33.84462,-84.256549
US Garage Door Svc,Hyun,Kwon,338 Trotters Rdg,Lawrenceville,GA,(404) 771-9000,Garage Doors-Repairing,Garage Doors-Repairing,,"$639,000 ",Atl-Ss-Rswl,338 Trotters Rdg,,
Valentino,Ji,Kwon,3500 Peachtree Rd NE # C7,Atlanta,GA,(404) 846-6565,Clothing-Retail,Clothing-Retail,,"$168,000 ",Atl-Ss-Rswl,3500 Peachtree Rd NE,33.85279625,-84.36216862605832
Waffle House Inc,Mike,Kwon,5986 Financial Dr,Norcross,GA,(770) 729-5700,Restaurant Management,Restaurant Management,Franchising,$0 ,Atl-Ss-Rswl,5986 Financial Dr,33.918726050000004,-84.20658719884662
WEALTHWAVE,Taeook,Kwon,6475 E Johns Xing,Johns Creek,GA,(770) 418-0300,Financial Advisory Services,Financial Advisory Services,,$0 ,Atl-Ss-Rswl,6475 E Johns Xing,34.06332896348624,-84.16698115080344
Wildwood Cafe,Abraham,Kwon,3200 Windy Hill Rd SE # 150,Atlanta,GA,(770) 953-2378,Restaurants,Restaurants,,"$216,000 ",Atl-Ss-Rswl,3200 Windy Hill Rd SE,,
Yoo Pharmacy,Hailey,Kwon,3610 Peachtree Industrial Blvd,Duluth,GA,(770) 299-1971,Pharmacies,Pharmacies,,"$652,000 ",Atl-Ss-Rswl,3610 Peachtree Industrial Blvd,33.998986450000004,-84.16715033596276
Yuga Energe Inc,Yeol Yu,Kwon,337 Canton Rd,Cumming,GA,(770) 887-6871,Convenience Stores,Convenience Stores,,"$632,000 ",Atl-Ss-Rswl,337 Canton Rd,34.2142044,-84.1454285
120 Cleaners,Yung,Kim,3125 Roswell Rd # J,Marietta,GA,(770) 565-0961,Cleaners,Cleaners,,"$72,000 ",Atl-Ss-Rswl,3125 Roswell Rd,33.9509283,-84.5197457
2nd To None Auto,Y,Kim,484 Mitchell Rd,Norcross,GA,(770) 263-0568,Automobile Repairing & Service,Automobile Repairing & Service,,"$124,000 ",Atl-Ss-Rswl,484 Mitchell Rd,33.9421141,-84.2094242
3plus Logistics,John,Kim,3237 Satellite Blvd # 325,Duluth,GA,(678) 417-6552,Logistics Consulting Services,Logistics Consulting Services,,"$1,125,000 ",Atl-Ss-Rswl,3237 Satellite Blvd,,
A & T Outlet,Rex,Kim,2670 N Berkeley Rd,Duluth,GA,(770) 680-5393,Factory Outlets,Factory Outlets,,"$247,000 ",Atl-Ss-Rswl,2670 N Berkeley Rd,,
A M K O,Christine,Kim,4987 Village Terrace Dr,Dunwoody,GA,(770) 395-6692,Nonclassified Establishments,Nonclassified Establishments,,$0 ,Atl-Ss-Rswl,4987 Village Terrace Dr,33.94364303281167,-84.33437969928872
A Plus Cleaning,Sangho,Kim,6986 Mcever Rd,Buford,GA,(678) 714-9959,Cleaners,Cleaners,,"$169,000 ",Gainesville,6986 Mcever Rd,34.1500893,-83.9734262
A Tech Dental Lab,Jack,Kim,901 Shorter Ave SW,Rome,GA,(706) 232-7443,Laboratories-Dental,Laboratories-Dental,,"$1,139,000 ",Rome,901 Shorter Ave SW,,
A Town Wings,David,Kim,3205 Deans Bridge Rd,Augusta,GA,(706) 504-4256,Restaurants,Restaurants,,"$255,000 ",Augusta,3205 Deans Bridge Rd,33.4205586344174,-82.06672122094758
A Town Wings,James,Kim,3999 Austell Rd # 1001,Austell,GA,(770) 941-9460,Restaurants,Restaurants,,"$324,000 ",Atl-Ss-Rswl,3999 Austell Rd,33.85552895,-84.5992853167727
A1 Construction Group Inc,Paul,Kim,1890 Green Oak Cir,Lawrenceville,GA,(770) 568-9176,Construction Companies,Construction Companies,,"$711,000 ",Atl-Ss-Rswl,1890 Green Oak Cir,,
Accessory Land,Jim,Kim,20 Broad St SW # C,Atlanta,GA,(404) 688-3127,Beauty Salons,Beauty Salons,Beauty Salons-Equipment & Supplies (Whls),"$148,000 ",Atl-Ss-Rswl,20 Broad St SW,33.753178297297296,-84.39210437837838
Ace Coin Laundry,Young,Kim,1085 Holcomb Bridge Rd # 120,Roswell,GA,(770) 641-9601,Laundries,Laundries,,"$136,000 ",Atl-Ss-Rswl,1085 Holcomb Bridge Rd,34.022621,-84.3291752
Ace Handbag,Han,Kim,5748 Buford Hwy NE,Doraville,GA,(770) 454-6667,Handbags,Handbags,Handbags-Wholesale,"$419,000 ",Atl-Ss-Rswl,5748 Buford Hwy NE,,
ACS,Joseph,Kim,6400 Peake Rd,Macon,GA,(478) 477-2278,Internet Svcs-Network Designers/Conslnt,Internet Svcs-Network Designers/Conslnt,Computers-System Designers & Consultants,"$748,000 ",Macon,6400 Peake Rd,32.875609292407916,-83.761419539757
Action Trading,Sang K,Kim,5269 Buford Hwy NE # 1,Doraville,GA,(770) 458-7846,Sportswear-Mens-Manufacturers,Sportswear-Mens-Manufacturers,Sportswear-Wholesale,"$105,000 ",Atl-Ss-Rswl,5269 Buford Hwy NE,,
Advance Financial Corp,Mitch,Kim,3700 Mansell Rd # 550,Alpharetta,GA,(678) 461-7619,Financial Advisory Services,Financial Advisory Services,Loans,"$1,777,000 ",Atl-Ss-Rswl,3700 Mansell Rd,34.0383001,-84.29527918567285
Advance Tech Heating & Cooling,Keesuk,Kim,1360 Belmont Hills Dr,Suwanee,GA,(678) 770-4477,Mechanical Contractors,Mechanical Contractors,,"$511,000 ",Atl-Ss-Rswl,1360 Belmont Hills Dr,,
Aero Costa Global Systems,Bo,Kim,3775 Venture Dr # G,Duluth,GA,(770) 806-2992,Express & Transfer Svc,Express & Transfer Svc,,"$1,144,000 ",Atl-Ss-Rswl,3775 Venture Dr,,
AG Family Medicine,Chang S,Kim,3590 Peachtree Industrial Blvd,Duluth,GA,(770) 614-9799,Physicians & Surgeons,Physicians & Surgeons,,"$1,254,000 ",Atl-Ss-Rswl,3590 Peachtree Industrial Blvd,34.00029735,-84.16761485518242
AG Family Medicine,Chang Soo,Kim,3590 Peachtree Industrial Blvd,Duluth,GA,(770) 614-9799,Physicians & Surgeons,Physicians & Surgeons,,"$538,000 ",Atl-Ss-Rswl,3590 Peachtree Industrial Blvd,34.00029735,-84.16761485518242
Airline Baptist Church,Ledford,Kim,3368 White Sulphur Rd,Gainesville,GA,(770) 534-5682,Churches,Churches,,$0 ,Gainesville,3368 White Sulphur Rd,34.353453265684024,-83.76140352716398
Ajk Communications Inc,Chris,Kim,1197 Old Peachtree Rd NW # G,Suwanee,GA,(770) 299-1170,Communications,Communications,,"$1,213,000 ",Atl-Ss-Rswl,1197 Old Peachtree Rd NW,34.0027993,-84.0823038
Alfrex,Daniel,Kim,943 Gainesville Hwy # 100-4000,Buford,GA,(470) 589-7449,Manufacturers,Manufacturers,,"$907,000 ",Gainesville,943 Gainesville Hwy,34.1473935,-83.9625705
Align Orthodontics LLC,Jee-Eun,Kim,3495 Peachtree Pkwy # 115,Suwanee,GA,(678) 400-7567,Dentists,Dentists,,$0 ,Atl-Ss-Rswl,3495 Peachtree Pkwy,,
All Business Corp,John,Kim,3751 Venture Dr # 205,Duluth,GA,(770) 495-2330,Money Order Service,Money Order Service,Business Services NEC,"$3,878,000 ",Atl-Ss-Rswl,3751 Venture Dr,,
All Star Financial Group,Sean,Kim,365 Northridge Rd # 200,Atlanta,GA,(404) 522-3898,Insurance,Insurance,Bonds-Surety & Fidelity,"$17,503,000 ",Atl-Ss-Rswl,365 Northridge Rd,,
Allsouth Home Inspections,Kyong H,Kim,4045 Greenside Ct,Dacula,GA,(404) 964-3199,Real Estate Inspection,Real Estate Inspection,,"$106,000 ",Atl-Ss-Rswl,4045 Greenside Ct,,
Alterations & Shoe Repair,Duksoo,Kim,1039 Ptree Ind Blvd # A112,Suwanee,GA,(770) 831-7049,Shoe & Boot Repairing,Shoe & Boot Repairing,Shoe Dyers,"$120,000 ",Atl-Ss-Rswl,1039 Ptree Ind Blvd,,
Ambient Plus Studio,Jed,Kim,585 Wells St SW # A,Atlanta,GA,(404) 436-1360,Rental Space,Rental Space,Photographic Equip & Supplies-Retail,"$485,000 ",Atl-Ss-Rswl,585 Wells St SW,33.73981,-84.4073334
Ambrose Elementary School,Clayton,Kim,3753 Vickers Xing,Ambrose,GA,(912) 359-5500,Schools,Schools,,$0 ,Douglas,3753 Vickers Xing,31.5946077,-83.0135269
American Deli,Jessica,Kim,2091 Campbellton Rd SW,Atlanta,GA,(404) 228-2789,Restaurants,Restaurants,Foods-Carry Out,"$599,000 ",Atl-Ss-Rswl,2091 Campbellton Rd SW,33.706725500000005,-84.45694177272728
American Deli,Jin Soo,Kim,2740 Grnbr Pkwy SW # A1a,Atlanta,GA,(404) 494-9903,Restaurants,Restaurants,Foods-Carry Out,"$599,000 ",Atl-Ss-Rswl,2740 Grnbr Pkwy SW,,
American Deli,Chuneol,Kim,3695 Cascade Rd SW # M,Atlanta,GA,(404) 699-1344,Restaurants,Restaurants,Foods-Carry Out,"$200,000 ",Atl-Ss-Rswl,3695 Cascade Rd SW,,
American Deli,Dae Young,Kim,1881 Cham Tuck Rd # 3-2,Chamblee,GA,(770) 454-1333,Restaurants,Restaurants,Foods-Carry Out,"$206,000 ",Atl-Ss-Rswl,1881 Cham Tuck Rd,,
American Deli,Seoyong,Kim,5190 Old National Hwy # B,College Park,GA,(404) 209-1001,Restaurants,Restaurants,Foods-Carry Out,"$466,000 ",Atl-Ss-Rswl,5190 Old National Hwy,33.6138868,-84.472056
American Deli,Jung,Kim,1360 Dogwood Dr SE # 203,Conyers,GA,(770) 602-3272,Restaurants,Restaurants,Foods-Carry Out,"$379,000 ",Atl-Ss-Rswl,1360 Dogwood Dr SE,33.65412295908425,-84.00215891888236
American Deli,Dae Y,Kim,3822 Salem Rd,Covington,GA,(770) 728-4376,Restaurants,Restaurants,Foods-Carry Out,"$126,000 ",Atl-Ss-Rswl,3822 Salem Rd,,
American Deli,Chong,Kim,2801 Candler Rd # 18,Decatur,GA,(404) 241-5090,Restaurants,Restaurants,Foods-Carry Out,"$258,000 ",Atl-Ss-Rswl,2801 Candler Rd,33.752575,-84.29213
American Deli,Jung,Kim,4869 Covington Hwy # E,Decatur,GA,(404) 284-4800,Restaurants,Restaurants,Foods-Carry Out,"$258,000 ",Atl-Ss-Rswl,4869 Covington Hwy,,
American Deli,Seoungyo,Kim,162 Banks Xing,Fayetteville,GA,(678) 817-4570,Restaurants,Restaurants,Foods-Carry Out,"$47,000 ",Atl-Ss-Rswl,162 Banks Xing,33.47137709108593,-84.44791542287382
American Deli,Chang,Kim,4481 Jonesboro Rd,Forest Park,GA,(404) 608-8646,Restaurants,Restaurants,Foods-Carry Out,"$155,000 ",Atl-Ss-Rswl,4481 Jonesboro Rd,33.6323501,-84.3582142
American Deli,Sung,Kim,180 Cobb Pkwy S # 20,Marietta,GA,(770) 590-1178,Restaurants,Restaurants,Foods-Carry Out,"$324,000 ",Atl-Ss-Rswl,180 Cobb Pkwy S,33.947190023876345,-84.51843531645666
American Deli,Chong C,Kim,6401 Highway 85,Riverdale,GA,(770) 991-9464,Restaurants,Restaurants,Foods-Carry Out,"$206,000 ",Atl-Ss-Rswl,6401 Highway 85,,
Andronica Dental,Hyun B,Kim,2729 Duluth Highway 120,Duluth,GA,(678) 473-7770,Dentists,Dentists,,"$1,351,000 ",Atl-Ss-Rswl,2729 Duluth Highway 120,,
Andronica Dental,Zachary,Kim,2729 Duluth Highway 120,Duluth,GA,(678) 473-7770,Dentists,Dentists,,"$601,000 ",Atl-Ss-Rswl,2729 Duluth Highway 120,,
Andronica Dental,Hyun B,Kim,2729 Duluth Highway 120,Duluth,GA,(678) 473-7770,Dentists,Dentists,,"$601,000 ",Atl-Ss-Rswl,2729 Duluth Highway 120,,
Andy Glass,Andy M,Kim,6000 Buford Hwy NE,Atlanta,GA,(770) 446-5505,Glass-Residential,Glass-Residential,Glass-Auto Plate & Window & Etc,"$1,958,000 ",Atl-Ss-Rswl,6000 Buford Hwy NE,,
Angie Beauty Plus,Youngsoo,Kim,2116 Henderson Mill Rd NE,Atlanta,GA,(770) 496-9998,Cosmetics & Perfumes-Retail,Cosmetics & Perfumes-Retail,,"$386,000 ",Atl-Ss-Rswl,2116 Henderson Mill Rd NE,,
Angie's Beauty,Yong,Kim,5125 Austell Rd,Austell,GA,(770) 944-6775,Cosmetics & Perfumes-Retail,Cosmetics & Perfumes-Retail,,"$629,000 ",Atl-Ss-Rswl,5125 Austell Rd,33.82811,-84.6144189
Angie's Beauty Depot,Chang,Kim,2530 Bouldercrest Rd SE,Atlanta,GA,(404) 243-0474,Cosmetics & Perfumes-Retail,Cosmetics & Perfumes-Retail,,"$386,000 ",Atl-Ss-Rswl,2530 Bouldercrest Rd SE,,
Angie's Beauty Supl Stone Mtn,Yong,Kim,971 N Hairston Rd,Stone Mountain,GA,(770) 413-7800,Hair Goods & Supplies-Retail,Hair Goods & Supplies-Retail,Beauty Salons-Equipment & Supplies (Whls),"$643,000 ",Atl-Ss-Rswl,971 N Hairston Rd,,
Angie's Beauty Supply,Yon,Kim,1145 R Abrnty Blvd SW,Atlanta,GA,(404) 755-0546,Cosmetics & Perfumes-Retail,Cosmetics & Perfumes-Retail,,"$328,000 ",Atl-Ss-Rswl,1145 R Abrnty Blvd SW,,
Angies Beauty Inc,Young,Kim,8337 Roswell Rd,Sandy Springs,GA,(678) 352-1837,Cosmetics & Perfumes-Retail,Cosmetics & Perfumes-Retail,,"$819,000 ",Atl-Ss-Rswl,8337 Roswell Rd,33.98195252740762,-84.350181154181
Anna Kim State Farm,Anna,Kim,1295 Old Ptree Rd NW # 220,Suwanee,GA,(678) 321-1101,Insurance-Health & Accident,Insurance-Health & Accident,Insurance-Homeowners,"$426,000 ",Atl-Ss-Rswl,1295 Old Ptree Rd NW,,
Anna Sook Kim-State Farm Ins,Anna,Kim,1295 Old Ptree Rd NW # 220,Suwanee,GA,(678) 321-1101,Insurance-Homeowners,Insurance-Homeowners,Insurance-Life (Agents),"$325,000 ",Atl-Ss-Rswl,1295 Old Ptree Rd NW,,
Aon Solutions Inc,Mike,Kim,440 S Peachtree St # A,Norcross,GA,(770) 674-0473,Federal Government Contractors,Federal Government Contractors,,$0 ,Atl-Ss-Rswl,440 S Peachtree St,33.93654256094478,-84.21709477622075
Apex Cleaners,H,Kim,360 Ptree Ind Blvd # 105,Suwanee,GA,(678) 482-6060,Cleaners,Cleaners,,"$186,000 ",Atl-Ss-Rswl,360 Ptree Ind Blvd,,
Appletree Deli,Ki,Kim,11706 Alpharetta Hwy # 300,Roswell,GA,(770) 475-2001,Restaurants,Restaurants,,"$266,000 ",Atl-Ss-Rswl,11706 Alpharetta Hwy,34.065451,-84.3204718
Arbor Place Beverage,Hee Sun,Kim,7455 Douglas Blvd,Douglasville,GA,(678) 838-9625,Wines-Retail,Wines-Retail,,"$1,761,000 ",Atl-Ss-Rswl,7455 Douglas Blvd,33.7247963,-84.7616786
Ashby Cleaners,Eui D,Kim,751 Joseph E Boone Blvd NW,Atlanta,GA,(404) 524-0405,Cleaners,Cleaners,,"$136,000 ",Atl-Ss-Rswl,751 Joseph E Boone Blvd NW,33.76352990625,-84.41351415625
Asian-American Community Svc,John C,Kim,4187 Northeast Expy # 100,Atlanta,GA,(470) 545-7653,Associations,Associations,Social Service & Welfare Organizations,$0 ,Atl-Ss-Rswl,4187 Northeast Expy,33.8237069,-84.3518667
Athens Sushi Bar,Brian,Kim,440 E Clayton St,Athens,GA,(706) 227-9339,Restaurants,Restaurants,,"$1,331,000 ",Athens-Clark,440 E Clayton St,33.9588272,-83.3736787
Atlanta Apostille,David,Kim,1800 Peachtree St NW # 750,Atlanta,GA,(404) 323-4211,Legal Services,Legal Services,,"$538,000 ",Atl-Ss-Rswl,1800 Peachtree St NW,,
Atlanta Ceiling Fans,Con,Kim,1160 Alpharetta St # A,Roswell,GA,(770) 998-6812,Fans-Industrial & Commercial (Whls),Fans-Industrial & Commercial (Whls),Fans-Household,"$4,039,000 ",Atl-Ss-Rswl,1160 Alpharetta St,,
Atlanta Cleaners,Young,Kim,201 Mitchell St SW,Atlanta,GA,(404) 688-8262,Cleaners,Cleaners,,"$68,000 ",Atl-Ss-Rswl,201 Mitchell St SW,33.7519433,-84.39454456313882
Atlanta Discount Flooring Inc,Sang K,Kim,2730 N Berk Lk Rd NW # 200,Duluth,GA,(770) 495-9900,Floor Coverings-Retail,Floor Coverings-Retail,,"$364,000 ",Atl-Ss-Rswl,2730 N Berk Lk Rd NW,,
Atlanta Fingerprinting,David,Kim,1800 Peachtree St NW # 750,Atlanta,GA,(404) 465-1705,Fingerprinting,Fingerprinting,,"$197,000 ",Atl-Ss-Rswl,1800 Peachtree St NW,,
Atlanta Internal Medicine PC,Jo,Kim,3775 Venture Dr # H101,Duluth,GA,(770) 858-5252,Clinics,Clinics,,"$717,000 ",Atl-Ss-Rswl,3775 Venture Dr,,
Atlanta Korean Seventh-Day,Bong H,Kim,4801 Old Norcross Rd,Duluth,GA,(770) 316-9707,Churches,Churches,,$0 ,Atl-Ss-Rswl,4801 Old Norcross Rd,,
Atlanta Music Academy,Young,Kim,4164 Silver Peak Pkwy,Suwanee,GA,(770) 614-8221,Music Instruction-Instrumental,Music Instruction-Instrumental,Records Tapes & Compact Discs-Retail,$0 ,Atl-Ss-Rswl,4164 Silver Peak Pkwy,34.05703978735198,-84.08314927914492
Atlanta Notaries,David,Kim,1800 Peachtree St NW # 507-C,Atlanta,GA,(404) 437-9295,Notaries-Public,Notaries-Public,,"$989,000 ",Atl-Ss-Rswl,1800 Peachtree St NW,,
Atlanta Promise Church,Ricky,Kim,3247 Mcginnis Ferry Rd,Suwanee,GA,(678) 482-9106,Churches,Churches,,$0 ,Atl-Ss-Rswl,3247 Mcginnis Ferry Rd,34.030642042295064,-84.06244984048082
Atlanta South Metro Coca-Cola,Everett,Kim,4913 Mason Rd,Atlanta,GA,(404) 669-2400,Bottlers (Mfrs),Bottlers (Mfrs),Soft Drink Products-Manufacturers,"$230,218,000 ",Atl-Ss-Rswl,4913 Mason Rd,,
Atlanta Veterans Affairs Med,Lindsay,Kim,1670 Clairmont Rd,Decatur,GA,(404) 321-6111,Physicians & Surgeons,Physicians & Surgeons,,"$608,000 ",Atl-Ss-Rswl,1670 Clairmont Rd,33.8018044,-84.3117
Atlanticus Service,Esther,Kim,5 Concourse Pkwy # 300,Atlanta,GA,(770) 828-2000,Credit Card & Other Credit Plans,Credit Card & Other Credit Plans,Check Cashing Service,$0 ,Atl-Ss-Rswl,5 Concourse Pkwy,,
Attic,Jay,Kim,1344 Washington St # A,Clarkesville,GA,(706) 839-1811,Restaurants,Restaurants,,"$384,000 ",Cornelia,1344 Washington St,34.61428762244898,-83.525329
Augusta Full Gospel Church,Joseph,Kim,3033 Meadowbrook Dr,Augusta,GA,(706) 798-4422,Churches,Churches,,$0 ,Augusta,3033 Meadowbrook Dr,33.417221,-82.078044
Augusta Korean Presbyterian,Joo Hoon,Kim,2992 Glenn Hills Dr,Augusta,GA,(706) 790-4608,Churches,Churches,,$0 ,Augusta,2992 Glenn Hills Dr,33.42825738943582,-82.08172216436952
Augusta University Dental Assc,L C,Kim,John Wesley Gilbert Dr Au,Augusta,GA,(706) 721-2696,Dentists,Dentists,,$0 ,Augusta,John Wesley Gilbert Dr Au,,
Autonation Ford Marietta,Bob,Kim,869 Cobb Pkwy S,Marietta,GA,(770) 674-6077,Automobile Dealers-New Cars,Automobile Dealers-New Cars,Truck-Dealers-New,"$23,888,000 ",Atl-Ss-Rswl,869 Cobb Pkwy S,33.93102409059942,-84.50972253460345
B K B R Group Inc,Bobby,Kim,PO Box 1898,Duluth,GA,Not Available,Nonclassified Establishments,Nonclassified Establishments,,$0 ,Atl-Ss-Rswl,PO Box 1898,,
Badcock Home Furniture & More,Dennis,Kim,3134 Highway 278 NW,Covington,GA,(770) 784-1645,Furniture-Dealers-Retail,Furniture-Dealers-Retail,Household Furniture NEC (Mfrs),"$735,000 ",Atl-Ss-Rswl,3134 Highway 278 NW,33.604094950000004,-83.86211547331058
Badcock Home Furniture & More,Dennis,Kim,1084 E Franklin St,Hartwell,GA,(706) 376-3785,Furniture-Dealers-Retail,Furniture-Dealers-Retail,Household Furniture NEC (Mfrs),"$509,000 ",,1084 E Franklin St,34.35478002684564,-82.91217677852349
Bank Of Dudley,Kennedy,Kim,1650 Veterans Blvd,Dublin,GA,(478) 277-1500,Banks,Banks,Loans,"$1,049,000 ",Dublin,1650 Veterans Blvd,32.536318666666666,-82.931373
Banner & Sticker Brothers LLC,Edward,Kim,2830 Peachtree Industrial Blvd,Duluth,GA,(678) 350-6626,Banners,Banners,,"$247,000 ",Atl-Ss-Rswl,2830 Peachtree Industrial Blvd,34.02229175,-84.14751464826425
Bascomb United Methodist Chr,Millie L,Kim,2295 Bascomb Carmel Rd,Woodstock,GA,(770) 926-9755,Churches,Churches,,$0 ,Atl-Ss-Rswl,2295 Bascomb Carmel Rd,34.10116085,-84.57314886544239
Beauty 4 U,Yesook,Kim,230 S Tennessee St,Cartersville,GA,(678) 721-1826,Beauty Salons,Beauty Salons,Beauty Salons-Equipment & Supplies (Whls),"$63,000 ",Atl-Ss-Rswl,230 S Tennessee St,34.16363116463182,-84.79347450743666
Beauty Depot,Tong,Kim,825 Mlk Dr NW # B1,Atlanta,GA,(678) 701-0339,Beauty Salons,Beauty Salons,Cosmetics & Perfumes-Retail,"$99,000 ",Atl-Ss-Rswl,825 Mlk Dr NW,,
Beauty Island,Mike,Kim,2179 Fairburn Rd,Douglasville,GA,(770) 966-2442,Cosmetics & Perfumes-Retail,Cosmetics & Perfumes-Retail,Beauty Salons,"$401,000 ",Atl-Ss-Rswl,2179 Fairburn Rd,33.74648657142857,-84.69651885714285
Beauty Island,Joseph,Kim,4200 Wade Green Rd NW,Kennesaw,GA,(770) 485-0441,Beauty Salons-Equipment & Supplies (Whls),Beauty Salons-Equipment & Supplies (Whls),Beauty Salons,"$133,000 ",Atl-Ss-Rswl,4200 Wade Green Rd NW,,
Beauty Mall,Ann,Kim,101 Trade St,Brunswick,GA,(912) 275-8287,Cosmetics & Perfumes-Retail,Cosmetics & Perfumes-Retail,,"$244,000 ",Brunswick,101 Trade St,,
Beauty Mart,Tom,Kim,6200 Mableton Pkwy SW # 120,Mableton,GA,(770) 732-0944,Cosmetics & Perfumes-Retail,Cosmetics & Perfumes-Retail,,"$252,000 ",Atl-Ss-Rswl,6200 Mableton Pkwy SW,,
Beauty Now 2,Eun J,Kim,4450 Brogdon Blvd # A10,Buford,GA,(470) 326-3929,Beauty Salons,Beauty Salons,Cosmetics & Perfumes-Retail,$0 ,Atl-Ss-Rswl,4450 Brogdon Blvd,,
Beauty Supply Hills,Sun Hwa,Kim,1166 Franklin Gtwy SE # 3,Marietta,GA,(770) 956-8811,Beauty Salons,Beauty Salons,Cosmetics & Perfumes-Retail,"$45,000 ",Atl-Ss-Rswl,1166 Franklin Gtwy SE,,
Beauty World,Hee,Kim,127 Pavilion Pkwy,Fayetteville,GA,(678) 817-5200,Beauty Salons,Beauty Salons,Beauty Salons-Equipment & Supplies (Whls),"$80,000 ",Atl-Ss-Rswl,127 Pavilion Pkwy,33.4794106,-84.4432627
Beauty World,Hee C,Kim,1993 Jonesboro Rd,Mcdonough,GA,(678) 593-5586,Cosmetics & Perfumes-Retail,Cosmetics & Perfumes-Retail,,"$179,000 ",Atl-Ss-Rswl,1993 Jonesboro Rd,33.4489564,-84.1591753
Bee Sales Co,Aaron,Kim,1085 Satellite Blvd NW,Suwanee,GA,(770) 903-4400,General Merchandise-Retail,General Merchandise-Retail,,"$341,000 ",Atl-Ss-Rswl,1085 Satellite Blvd NW,34.0391159,-84.0470684
Benning Giant Food,Heejeang,Kim,711 Fort Benning Rd,Columbus,GA,(706) 689-1961,Grocers-Retail,Grocers-Retail,,"$1,907,000 ",Columbus,711 Fort Benning Rd,32.438007583164556,-84.94098121556094
Besco Beauty Intl Inc,Chang Su,Kim,6100 Buford Hwy NE,Atlanta,GA,(770) 729-8080,Beauty Salons-Equipment & Supplies (Whls),Beauty Salons-Equipment & Supplies (Whls),,"$4,646,000 ",Atl-Ss-Rswl,6100 Buford Hwy NE,,
Best Cleaners,David,Kim,3960 Mary Eliza Trce NW # 100,Marietta,GA,(678) 269-8341,Cleaners,Cleaners,Cleaners & Dyers Equipment (Whls),"$144,000 ",Atl-Ss-Rswl,3960 Mary Eliza Trce NW,,
Best Western Gwinnett Ctr Htl,Elena,Kim,3670 Shackleford Rd,Duluth,GA,(770) 935-7171,Hotels & Motels,Hotels & Motels,,"$1,440,000 ",Atl-Ss-Rswl,3670 Shackleford Rd,33.948101949999995,-84.13003924931803
Best Western Plus Hotel-Suites,Elena,Kim,1556 Phoenix Blvd,College Park,GA,(770) 996-5800,Hotels & Motels,Hotels & Motels,,"$4,211,000 ",Atl-Ss-Rswl,1556 Phoenix Blvd,33.61429724646646,-84.4396493520993
Best Western-Acworth Inn,Jason,Kim,5155 Cowan Rd,Acworth,GA,(770) 974-0116,Hotels & Motels,Hotels & Motels,,"$9,346,000 ",Atl-Ss-Rswl,5155 Cowan Rd,34.07596557142857,-84.65405063265307
Bethel Faith Baptist Church,David,Kim,3390 S Puckett Rd,Buford,GA,(678) 334-1115,Churches,Churches,,$0 ,Atl-Ss-Rswl,3390 S Puckett Rd,,
Better Label & Products Inc,Day,Kim,3333 Empire Blvd SW,Atlanta,GA,(404) 763-8440,General Ind Machinery/Equip NEC (Mfrs),General Ind Machinery/Equip NEC (Mfrs),Labels (Mfrs),"$5,590,000 ",Atl-Ss-Rswl,3333 Empire Blvd SW,33.66328115,-84.39235305
Beverage Mart,Sun Hong,Kim,3482 Cobb Pkwy NW,Acworth,GA,(770) 529-3027,Liquors-Retail,Liquors-Retail,,"$2,734,000 ",Atl-Ss-Rswl,3482 Cobb Pkwy NW,,
Big Bear Foods,Roger,Kim,683 Joseph E Lowery Blvd SW,Atlanta,GA,(404) 753-1478,Grocers-Retail,Grocers-Retail,,"$3,687,000 ",Atl-Ss-Rswl,683 Joseph E Lowery Blvd SW,,
Big Bear Supermarket,Ray J,Kim,2849 Candler Rd,Decatur,GA,(404) 381-5063,Grocers-Retail,Grocers-Retail,,"$10,150,000 ",Atl-Ss-Rswl,2849 Candler Rd,33.752575,-84.29213
Big Boy Headgear Inc,Joanne,Kim,5073 Bristol Industrial Way,Buford,GA,(213) 388-2744,Hats-Manufacturers,Hats-Manufacturers,Safety Equipment & Clothing-Mfrs,"$11,994,000 ",Gainesville,5073 Bristol Industrial Way,34.13990912718809,-83.96123524582737
Big Joy,Jin,Kim,2852 Delk Rd SE # 215,Marietta,GA,(770) 693-1907,Restaurants,Restaurants,,"$324,000 ",Atl-Ss-Rswl,2852 Delk Rd SE,33.9228069,-84.472161
Blimpie America's Sub Shop,Cindy,Kim,1714 15th St,Augusta,GA,(706) 738-1399,Restaurants,Restaurants,Health & Diet Foods-Retail,"$255,000 ",Augusta,1714 15th St,33.45518863281073,-81.99886911783938
Blue Computer & Network Svc,Hojin,Kim,1325 Satellite Blvd NW # 105,Suwanee,GA,(770) 418-2831,Information Technology Services,Information Technology Services,,"$581,000 ",Atl-Ss-Rswl,1325 Satellite Blvd NW,34.0391159,-84.0470684
BNX Shipping Inc,Dae K,Kim,3460 Summit Ridge Pkwy # 601,Duluth,GA,(404) 530-2343,Freight-Forwarding,Freight-Forwarding,,"$649,000 ",Atl-Ss-Rswl,3460 Summit Ridge Pkwy,33.98692028772565,-84.16900173459133
Bong In Kim,Kajo,Kim,2125 Pendleton Pl,Suwanee,GA,(404) 661-6477,Nonclassified Establishments,Nonclassified Establishments,,$0 ,Atl-Ss-Rswl,2125 Pendleton Pl,,
Booja Wireless 2,Kevin,Kim,7202 Highway 85,Riverdale,GA,(770) 997-7701,Cellular Telephones (Services),Cellular Telephones (Services),Authorized Retailer-Cellular Services,"$1,743,000 ",Atl-Ss-Rswl,7202 Highway 85,,
Boost Mobile Auth Retailer,Kevin,Kim,2826 Lexington Rd,Athens,GA,(706) 850-3841,Cellular Telephones (Services),Cellular Telephones (Services),Authorized Retailer-Cellular Services,"$1,597,000 ",Athens-Clark,2826 Lexington Rd,33.9415794,-83.3307116
Boost Mobile Auth Retailer,Kevin,Kim,6900 Ptree Ind Blvd # E,Atlanta,GA,(770) 729-8388,Cellular Telephones (Services),Cellular Telephones (Services),Authorized Retailer-Cellular Services,"$1,760,000 ",Atl-Ss-Rswl,6900 Ptree Ind Blvd,,
Boost Mobile Auth Retailer,Calvin,Kim,355 Canton Rd,Cumming,GA,(770) 888-9166,Cellular Telephones (Services),Cellular Telephones (Services),Authorized Retailer-Cellular Services,"$1,720,000 ",Atl-Ss-Rswl,355 Canton Rd,34.213902261059104,-84.14538346859605
Boost Mobile Auth Retailer,Sung,Kim,6032 Fairburn Rd,Douglasville,GA,(770) 577-1991,Cellular Telephones (Services),Cellular Telephones (Services),Authorized Retailer-Cellular Services,"$134,000 ",Atl-Ss-Rswl,6032 Fairburn Rd,33.747021,-84.6989383
Boost Mobile Auth Retailer,Maria,Kim,1869 Cobb Pkwy S # 300,Marietta,GA,(678) 324-8057,Cellular Telephones (Services),Cellular Telephones (Services),Authorized Retailer-Cellular Services,"$1,835,000 ",Atl-Ss-Rswl,1869 Cobb Pkwy S,33.906280800000005,-84.48908559999998
Boost Mobile Auth Retailer,Sean,Kim,603 S Marietta Pkwy SE,Marietta,GA,(770) 421-1700,Cellular Telephones (Services),Cellular Telephones (Services),Authorized Retailer-Cellular Services,"$918,000 ",Atl-Ss-Rswl,603 S Marietta Pkwy SE,33.9435935,-84.5339186
Boost Mobile Premier,Junghee,Kim,1634 Gordon Hwy,Augusta,GA,(706) 504-3211,Cellular Telephones (Services),Cellular Telephones (Services),Authorized Retailer-Cellular Services,"$883,000 ",Augusta,1634 Gordon Hwy,33.43933309090909,-82.01866957575758
Boral Material Technologies,Richard,Kim,317 Covered Bridge Rd SW,Euharlee,GA,(770) 382-2086,Concrete Additives (Whls),Concrete Additives (Whls),Concrete Additives-Manufacturers,"$8,868,000 ",Atl-Ss-Rswl,317 Covered Bridge Rd SW,34.1347319,-84.9377109
Breakers Korean BBQ,Jae,Kim,4400 Ashford Rd,Dunwoody,GA,(770) 946-2001,Restaurants,Restaurants,,"$258,000 ",Atl-Ss-Rswl,4400 Ashford Rd,33.9243468,-84.3412996
Bride Flowers,Sumi,Kim,3512 Satellite Blvd # 3,Duluth,GA,(678) 570-0140,Florists-Retail,Florists-Retail,,"$175,000 ",Atl-Ss-Rswl,3512 Satellite Blvd,,
Brockett Plaza Coin Laundry,Hye,Kim,1295 Brockett Rd,Clarkston,GA,(770) 934-9900,Laundries,Laundries,Washing Machs Dryers/Ironers-Coin (Whls),"$137,000 ",Atl-Ss-Rswl,1295 Brockett Rd,33.82106105439018,-84.23108018850449
Brumar Group LLC,Marcia,Kim,3670 Baxley Ridge Dr,Suwanee,GA,(470) 266-9200,Nonclassified Establishments,Nonclassified Establishments,,$0 ,Atl-Ss-Rswl,3670 Baxley Ridge Dr,,
Bruster's Real Ice Cream,Linzey,Kim,1540 Sharon Rd,Cumming,GA,(678) 455-3888,Ice Cream Parlors,Ice Cream Parlors,Restaurants,"$627,000 ",Atl-Ss-Rswl,1540 Sharon Rd,,
Buffalo China,J,Kim,461 Moreland Ave SE,Atlanta,GA,(404) 622-8888,Restaurants,Restaurants,,"$200,000 ",Atl-Ss-Rswl,461 Moreland Ave SE,33.74139955,-84.34954535578564
Buffalo China,Jae,Kim,414 N Hairston Rd # 700,Stone Mountain,GA,(404) 299-9111,Restaurants,Restaurants,,"$258,000 ",Atl-Ss-Rswl,414 N Hairston Rd,,
Buffalos House,Sam,Kim,4099 Lawrenceville Hwy NW,Lilburn,GA,(770) 381-9777,Restaurants,Restaurants,,"$158,000 ",Atl-Ss-Rswl,4099 Lawrenceville Hwy NW,,
Buford Presbyterian Church,Sonny,Kim,1242 Buford Hwy,Sugar Hill,GA,(770) 945-6711,Churches,Churches,,$0 ,Atl-Ss-Rswl,1242 Buford Hwy,34.0852374,-84.0289428
Burton Kim MD,Burton,Kim,3950 Austell Rd,Austell,GA,(770) 732-3585,Physicians & Surgeons,Physicians & Surgeons,Pathologists,"$516,000 ",Atl-Ss-Rswl,3950 Austell Rd,33.857603100000006,-84.60451904231957
C & C Beauty & Beyond,John,Kim,4850 Sugarloaf Pkwy # 701,Lawrenceville,GA,(770) 676-5741,Cosmetics & Perfumes-Retail,Cosmetics & Perfumes-Retail,,"$247,000 ",Atl-Ss-Rswl,4850 Sugarloaf Pkwy,33.9159727,-83.9969047
C & C Hair Salon,Rachael,Kim,2008 Candler Rd,Decatur,GA,(404) 288-8801,Beauty Salons,Beauty Salons,Cosmetics & Perfumes-Retail,"$34,000 ",Atl-Ss-Rswl,2008 Candler Rd,,
C Gregory Adams PC,Joyce S,Kim,342 Pat Haralson Dr,Blairsville,GA,(706) 835-2400,Dentists,Dentists,,"$353,000 ",,342 Pat Haralson Dr,,
C J Beauty Supply,Hon,Kim,1135 River Overlook Dr,Lawrenceville,GA,(678) 407-3882,Cosmetics & Perfumes-Retail,Cosmetics & Perfumes-Retail,,"$124,000 ",Atl-Ss-Rswl,1135 River Overlook Dr,,
Cafe Basil,Tom,Kim,13560 Morris Rd # 1160,Alpharetta,GA,(770) 777-7773,Restaurants,Restaurants,,"$333,000 ",Atl-Ss-Rswl,13560 Morris Rd,34.084234,-84.263175
Cafe Hot Wings,James,Kim,7300 Highway 85,Riverdale,GA,(770) 996-7773,Restaurants,Restaurants,Foods-Carry Out,"$463,000 ",Atl-Ss-Rswl,7300 Highway 85,,
Cafe Hot Wings 11,Sunny,Kim,60 Peachtree St NW,Atlanta,GA,(404) 222-9533,Restaurants,Restaurants,,"$466,000 ",Atl-Ss-Rswl,60 Peachtree St NW,,
Cafe J,Dong,Kim,6050 Singleton Rd # 110,Norcross,GA,(770) 448-2220,Restaurants,Restaurants,,"$53,000 ",Atl-Ss-Rswl,6050 Singleton Rd,,
Cafe Premiere,Miyoung,Kim,5605 Glenridge Dr,Sandy Springs,GA,(404) 497-1706,Restaurants,Restaurants,,"$133,000 ",Atl-Ss-Rswl,5605 Glenridge Dr,33.906803100000005,-84.3640849900247
Cancer Treatment Ctr Of Amer,Beomjune B,Kim,600 Celebrate Life Pkwy,Newnan,GA,(470) 944-9562,Physicians & Surgeons,Physicians & Surgeons,,$0 ,Atl-Ss-Rswl,600 Celebrate Life Pkwy,33.38474135,-84.75799675317302
Cann Dentistry,Joyce S,Kim,3525 Piedmont Rd NE # 5-408,Atlanta,GA,(404) 233-1102,Dentists,Dentists,,"$615,000 ",Atl-Ss-Rswl,3525 Piedmont Rd NE,33.8511494,-84.3772064
Car Wash Dr,Aecha,Kim,430 Highway 81 E,Mcdonough,GA,(770) 957-8000,Car Washing & Polishing,Car Washing & Polishing,,"$718,000 ",Atl-Ss-Rswl,430 Highway 81 E,,
Carriage Cleaners,Y,Kim,1230 Caroline St NE # 120,Atlanta,GA,(404) 230-2919,Cleaners,Cleaners,,"$69,000 ",Atl-Ss-Rswl,1230 Caroline St NE,33.7586026,-84.3484489
Carter's Distribution Ctr,Sujung,Kim,301 Eagles Landing Pkwy,Stockbridge,GA,(770) 389-6300,Distribution Services,Distribution Services,,"$751,000 ",Atl-Ss-Rswl,301 Eagles Landing Pkwy,33.5183025217136,-84.19594476172249
Carter's Inc,Lana,Kim,3438 Peachtree Rd NE # 1800,Atlanta,GA,(678) 791-1000,Childrens & Infants Wear-Retail,Childrens & Infants Wear-Retail,Clothes & Accessories-Childrens-Mfrs,$0 ,Atl-Ss-Rswl,3438 Peachtree Rd NE,33.85247635338219,-84.36035583801957
Cascade Service Ctr,Steve,Kim,2270 Cascade Rd SW,Atlanta,GA,(404) 758-4672,Automobile Repairing & Service,Automobile Repairing & Service,Automobile Inspection Stations-New/Used,"$228,000 ",Atl-Ss-Rswl,2270 Cascade Rd SW,,
Catch Air,Dong Ki,Kim,1515 Redi Rd,Cumming,GA,(678) 965-6868,Playgrounds,Playgrounds,,"$465,000 ",Atl-Ss-Rswl,1515 Redi Rd,,
Cell Depot,Bora,Kim,2765 Chastain Meadows Pkwy,Marietta,GA,(770) 419-5977,Cellular Telephones (Services),Cellular Telephones (Services),Cellular Telephones-Equipment & Supls,"$2,752,000 ",Atl-Ss-Rswl,2765 Chastain Meadows Pkwy,,
Center For Pan Asian Cmnty Svc,Chaiwon S,Kim,3510 Shallowford Rd NE,Atlanta,GA,(770) 936-0969,Marriage & Family Counselors,Marriage & Family Counselors,Transportation Services,"$3,147,000 ",Atl-Ss-Rswl,3510 Shallowford Rd NE,,
Center For Panasian Cmnty Svc,Chaiwon,Kim,3760 Park Ave,Atlanta,GA,(770) 936-0969,Services NEC,Services NEC,Federal Government Contractors,"$222,000 ",Atl-Ss-Rswl,3760 Park Ave,33.8549541,-84.3615649
CFC Of Georgia Inc,Alice,Kim,1649 International Ct,Norcross,GA,(770) 407-6360,Meat-Wholesale,Meat-Wholesale,,"$146,426,000 ",Atl-Ss-Rswl,1649 International Ct,,
Chan Acupuncture Clinic,Chan H,Kim,4857 Clay Brooke Dr SE,Smyrna,GA,(805) 497-7631,Acupuncture,Acupuncture,,"$128,000 ",Atl-Ss-Rswl,4857 Clay Brooke Dr SE,,
Chastain Cleaners,Sam,Kim,12850 Highway 9 N # 100,Alpharetta,GA,(678) 366-8050,Cleaners,Cleaners,,"$338,000 ",Atl-Ss-Rswl,12850 Highway 9 N,,
Cherries Beauty Supply,Hee,Kim,3425 Centerville Hwy # 3f,Snellville,GA,(770) 978-4811,Cosmetics & Perfumes-Retail,Cosmetics & Perfumes-Retail,Beauty Salons-Equipment & Supplies (Whls),"$247,000 ",Atl-Ss-Rswl,3425 Centerville Hwy,,
Cherry Beauty Supply,Hee,Kim,7245 Rockbridge Rd # 1000,Lithonia,GA,(770) 498-5404,Cosmetics & Perfumes-Retail,Cosmetics & Perfumes-Retail,General Merchandise-Retail,"$257,000 ",Atl-Ss-Rswl,7245 Rockbridge Rd,,
Child Evangelism Fellowship,Margaret,Kim,4246 Washington Rd,Evans,GA,(706) 793-9890,Churches,Churches,,$0 ,Augusta,4246 Washington Rd,33.52990953395907,-82.12343432336185
Childrens Pediatric Neurology,Hyunmi,Kim,1605 Chantilly Dr NE # 300,Atlanta,GA,(404) 785-4688,Physicians & Surgeons,Physicians & Surgeons,,"$608,000 ",Atl-Ss-Rswl,1605 Chantilly Dr NE,33.827062000000005,-84.34318160000001
Childrens Physician Group,Sophia H,Kim,605 Big Shanty Rd NW,Kennesaw,GA,(404) 785-0588,Physicians & Surgeons,Physicians & Surgeons,,"$516,000 ",Atl-Ss-Rswl,605 Big Shanty Rd NW,34.0293849,-84.5897472
Chim & Choi,Joong Kwon,Kim,3748 Chamblee Dunwoody Rd,Chamblee,GA,(770) 455-9091,Accountants,Accountants,,"$784,000 ",Atl-Ss-Rswl,3748 Chamblee Dunwoody Rd,33.900366604667674,-84.30690029656799
China Express By Choe,Tok K,Kim,5300 Stone Mountain Hwy,Stone Mountain,GA,(770) 465-9776,Restaurants,Restaurants,,"$158,000 ",Atl-Ss-Rswl,5300 Stone Mountain Hwy,,
Choice Agency,John,Kim,2550 Pleasant Hill Rd # 117,Duluth,GA,(678) 248-0170,Insurance,Insurance,,"$649,000 ",Atl-Ss-Rswl,2550 Pleasant Hill Rd,34.0045308,-84.1700046
Choice Carpet Inc,Chulsoo,Kim,5595 New Peachtree Rd,Atlanta,GA,(770) 936-9744,Carpet & Rug Cleaners,Carpet & Rug Cleaners,,"$141,000 ",Atl-Ss-Rswl,5595 New Peachtree Rd,,
Chong Ro Rice Cake,Mi Sun,Kim,1299 Old Ptree Rd NW # 104,Suwanee,GA,(678) 584-9172,Bakers-Retail,Bakers-Retail,,"$196,000 ",Atl-Ss-Rswl,1299 Old Ptree Rd NW,,
Chong Sung Corp,Soungsil,Kim,151 Nellie B Ave,Athens,GA,(706) 353-8175,Grocers-Retail,Grocers-Retail,,"$380,000 ",Athens-Clark,151 Nellie B Ave,33.9565352,-83.354985
Chow Dog,H,Kim,2572 Old Covington Hwy SW,Conyers,GA,(770) 483-8798,Restaurants,Restaurants,,"$142,000 ",Atl-Ss-Rswl,2572 Old Covington Hwy SW,33.674164,-84.044925
Church's Texas Chicken,Teresa,Kim,1405 Moreland Ave SE,Atlanta,GA,(404) 622-7207,Restaurants,Restaurants,Foods-Carry Out,"$1,174,000 ",Atl-Ss-Rswl,1405 Moreland Ave SE,33.7157422,-84.3499044
Ciox Health LLC,Hoil,Kim,925 North Point Pkwy # 350,Alpharetta,GA,(770) 360-1700,Medical Records Service,Medical Records Service,Medical Business Administration,$0 ,Atl-Ss-Rswl,925 North Point Pkwy,34.07793991498186,-84.26065045599488
CITGO Food Mart No 16,Sunny,Kim,4838 GA Highway 96 W,Jeffersonville,GA,(478) 945-6539,Service Stations-Gasoline & Oil,Service Stations-Gasoline & Oil,Convenience Stores,"$2,788,000 ",Macon,4838 GA Highway 96 W,,
City's,Jae,Kim,2134 Fairburn Rd,Douglasville,GA,(770) 947-7880,Restaurants,Restaurants,Foods-Carry Out,"$134,000 ",Atl-Ss-Rswl,2134 Fairburn Rd,33.747511958333334,-84.70023875
CJ International Inc,James,Kim,3400 Corporate Way # E,Duluth,GA,(513) 874-0011,Absorbents-Manufacturers,Absorbents-Manufacturers,Communication Equipment-Manufacturers,"$733,000 ",Atl-Ss-Rswl,3400 Corporate Way,34.01669422360606,-84.16644698339995
CJJ Enterprise Inc,Charles I,Kim,1595 Bankhead Hwy,Carrollton,GA,Not Available,Software/Application/Platform Publishing,Software/Application/Platform Publishing,,"$6,299,000 ",Atl-Ss-Rswl,1595 Bankhead Hwy,33.603867,-85.024994
Clara's Wedding & Alteration,Clara,Kim,7875 Roswell Rd # F,Atlanta,GA,(770) 730-0255,Alterations-Clothing,Alterations-Clothing,,"$160,000 ",Atl-Ss-Rswl,7875 Roswell Rd,33.9720953,-84.35749987874998
Classic Cleaners,Suzanne,Kim,1250 Auburn Rd,Dacula,GA,(770) 962-9696,Janitor Service,Janitor Service,Cleaners,"$558,000 ",Atl-Ss-Rswl,1250 Auburn Rd,,
Clayton Cataract & Laser Surg,Joon Y,Kim,1000 Corporate Center Dr # 180,Morrow,GA,(770) 968-8888,Physicians & Surgeons,Physicians & Surgeons,Contact Lenses,"$5,254,000 ",Atl-Ss-Rswl,1000 Corporate Center Dr,,
Clayton Eye Ctr,Joon Y,Kim,1000 Corp Ctr Dr # 100,Morrow,GA,(770) 968-8888,Optometrists OD,Optometrists OD,Optical Goods-Retail,"$576,000 ",Atl-Ss-Rswl,1000 Corp Ctr Dr,,
Clayton Eye Ctr,Joon Y,Kim,1000 Corp Ctr Dr # 100,Morrow,GA,(770) 968-8888,Physicians & Surgeons,Physicians & Surgeons,,"$644,000 ",Atl-Ss-Rswl,1000 Corp Ctr Dr,,
Cleaners Kay,Sut,Kim,3035 5 Forks Rd SW # 9,Lilburn,GA,(770) 978-4230,Cleaners,Cleaners,,"$186,000 ",Atl-Ss-Rswl,3035 5 Forks Rd SW,,
Cobblers Corner,Tae,Kim,241 Peachtree St NE # C,Atlanta,GA,(404) 524-7290,Shoe & Boot Repairing,Shoe & Boot Repairing,,"$180,000 ",Atl-Ss-Rswl,241 Peachtree St NE,33.760826449999996,-84.38719657371888
Columbia Dental Group,Paul B,Kim,2476 Pleasant Hill Rd # 201,Duluth,GA,(770) 476-9116,Dentists,Dentists,,"$601,000 ",Atl-Ss-Rswl,2476 Pleasant Hill Rd,34.0045308,-84.1700046
Comfort Inn Alpharetta-Atlanta,Eugene,Kim,5455 Windward Pkwy,Alpharetta,GA,(470) 273-6604,Hotels & Motels,Hotels & Motels,,"$2,934,000 ",Atl-Ss-Rswl,5455 Windward Pkwy,34.0876199,-84.2708504568946
Cooper Firm,Lauren,Kim,531 Roselane St NW # 200,Marietta,GA,(770) 427-5588,Attorneys,Attorneys,,"$1,651,000 ",Atl-Ss-Rswl,531 Roselane St NW,33.97467795138889,-84.55492797916666
CORE Kids Academy,Janet,Kim,2702 Peachtree Industrial Blvd,Duluth,GA,(770) 495-0073,Educational Service-Business,Educational Service-Business,Child Care Service,$0 ,Atl-Ss-Rswl,2702 Peachtree Industrial Blvd,34.023006676893026,-84.14064856583653
Cosmo Health Care,Sunhee,Kim,6185 Buford Hwy # G100,Peachtree Corners,GA,(770) 446-0929,Clinics,Clinics,Physicians & Surgeons,"$1,433,000 ",Atl-Ss-Rswl,6185 Buford Hwy,33.93207478503039,-84.223716645063
Cosmo Tech,Sean,Kim,2685 Langford Rd,Atlanta,GA,(470) 395-2152,Software/Application/Platform Publishing,Software/Application/Platform Publishing,Hardware NEC (Mfrs),"$2,199,000 ",Atl-Ss-Rswl,2685 Langford Rd,,
Council,Grace,Kim,1140 Old Peachtree Rd,Duluth,GA,(678) 336-9373,City Hall,City Hall,Educational Service-Business,$0 ,Atl-Ss-Rswl,1140 Old Peachtree Rd,34.008475,-84.1297247
Country Road Buffet,Young,Kim,2509 Airport Thruway,Columbus,GA,(706) 653-5400,Foods-Carry Out,Foods-Carry Out,Restaurants,"$407,000 ",Columbus,2509 Airport Thruway,32.5212039,-84.9566791
Coway USA Inc,Won Tae,Kim,2775 Premiere Pkwy # 400,Duluth,GA,(678) 691-2195,Software/Application/Platform Publishing,Software/Application/Platform Publishing,,"$4,190,000 ",Atl-Ss-Rswl,2775 Premiere Pkwy,,
Cricket Wireless Auth Retailer,Kevin,Kim,6900 Ptree Ind Blvd # G,Atlanta,GA,(470) 545-8074,Cellular Telephones (Services),Cellular Telephones (Services),Telecommunications Wiring & Cabling,"$3,519,000 ",Atl-Ss-Rswl,6900 Ptree Ind Blvd,,
Crystal Cleaners,Won,Kim,2340 Satellite Blvd # 250,Duluth,GA,(770) 623-6566,Cleaners,Cleaners,,"$279,000 ",Atl-Ss-Rswl,2340 Satellite Blvd,,
Crystal Pick Up & Delivery Svc,Alex,Kim,6430 Barwick Ln,Duluth,GA,(404) 319-0000,Cleaners,Cleaners,Delivery Service,"$68,000 ",Atl-Ss-Rswl,6430 Barwick Ln,,
CSM Bakery Solutions,Ellie,Kim,1912 Montreal Rd,Tucker,GA,(770) 724-8200,Bread/Other Bakery Prod-Ex Cookies,Bread/Other Bakery Prod-Ex Cookies,Food Preparations NEC (Mfrs),$0 ,Atl-Ss-Rswl,1912 Montreal Rd,33.83903513329607,-84.25688537275896
Cumming Martial Arts,Justin,Kim,5890 Bethelview Rd # 3,Cumming,GA,(770) 781-0059,Art Galleries & Dealers,Art Galleries & Dealers,Martial Arts Instruction,"$292,000 ",Atl-Ss-Rswl,5890 Bethelview Rd,,
Cup O Rice & Wings Inc,Lesli,Kim,1705 N Slappey Blvd,Albany,GA,(229) 496-1233,Restaurants,Restaurants,,"$353,000 ",Albany,1705 N Slappey Blvd,31.59969,-84.176002
CVS Pharmacy,Chuck,Kim,1615 Forest Hill Rd,Macon,GA,(478) 477-6648,Pharmacies,Pharmacies,Variety Stores,"$3,732,000 ",Macon,1615 Forest Hill Rd,32.89965367845116,-83.7032137573982
D & K Equipment Inc,Sung S,Kim,3715 Northcrest Rd # 30,Atlanta,GA,(770) 674-7188,Farm Equipment (Whls),Farm Equipment (Whls),,"$2,677,000 ",Atl-Ss-Rswl,3715 Northcrest Rd,,
Daehan Solution Georgia LLC,Kevin,Kim,791 S Progress Pkwy,West Point,GA,(706) 902-5200,Automobile Parts & Supplies-Retail-New,Automobile Parts & Supplies-Retail-New,Automobile Parts & Supplies-Wholesale,"$218,000 ",Columbus,791 S Progress Pkwy,,
Daewon American,Choonghoon,Kim,200 Piedmont Cir,Lagrange,GA,(706) 845-7476,Nonclassified Establishments,Nonclassified Establishments,,$0 ,Lagrange,200 Piedmont Cir,32.992562,-85.047269
Dail Community USA,Yeon Soo,Kim,2976 Buford Hwy # 201,Duluth,GA,(770) 813-0899,Non-Profit Organizations,Non-Profit Organizations,,$0 ,Atl-Ss-Rswl,2976 Buford Hwy,34.004055,-84.139824
Dasan USA Inc,Byung Hak,Kim,2400 Main St NW,Duluth,GA,(770) 623-6722,Automobile Machine Shop Service,Automobile Machine Shop Service,,"$616,000 ",Atl-Ss-Rswl,2400 Main St NW,,
Datapath Inc,Norman,Kim,2205 Northmont Pkwy # 100,Duluth,GA,(678) 597-0300,Software/Application/Platform Publishing,Software/Application/Platform Publishing,Federal Government Contractors,"$4,190,000 ",Atl-Ss-Rswl,2205 Northmont Pkwy,,
David E Kim MD,David E,Kim,491 E Main St,Cartersville,GA,(770) 387-4592,Physicians & Surgeons,Physicians & Surgeons,Incorporating Companies,"$528,000 ",Atl-Ss-Rswl,491 E Main St,34.16673735648258,-84.78952364973195
Dekalb Medical,Andrew J,Kim,2701 N Decatur Rd,Decatur,GA,(404) 501-1000,Physicians & Surgeons,Physicians & Surgeons,,"$608,000 ",Atl-Ss-Rswl,2701 N Decatur Rd,33.791343499999996,-84.28263311282058
Delightful Donuts & Coffee,Ben,Kim,12872 Highway 9 N,Alpharetta,GA,(770) 664-7000,Doughnuts,Doughnuts,Coffee & Tea,"$162,000 ",Atl-Ss-Rswl,12872 Highway 9 N,,
Denny's Beauty World,Hee,Kim,11369 Tara Blvd,Hampton,GA,(678) 610-7662,Cosmetics & Perfumes-Retail,Cosmetics & Perfumes-Retail,Beauty Salons-Equipment & Supplies (Whls),"$447,000 ",Atl-Ss-Rswl,11369 Tara Blvd,,
Dental Center Norcross,Yunsoon,Kim,5836 Buford Hwy # B,Norcross,GA,(770) 300-0031,Dentists,Dentists,,"$601,000 ",Atl-Ss-Rswl,5836 Buford Hwy,33.93589697525618,-84.21455818507579
Dentistry For Children,Mi Lee,Kim,4125 Buford Dr # U,Buford,GA,(678) 826-4772,Dentists,Dentists,,"$601,000 ",Atl-Ss-Rswl,4125 Buford Dr,34.0939372,-84.0020185
Dentistry For Smiles,Dhong-Jin,Kim,3651 Peachtree Pkwy # L,Suwanee,GA,(770) 622-2231,Dentists,Dentists,,"$632,000 ",Atl-Ss-Rswl,3651 Peachtree Pkwy,34.0695281,-84.16556332941292
Desco Co LTD,Taekon,Kim,2670 N Berk Lk Rd NW # 5,Duluth,GA,(770) 559-5914,Engineers-Plastic,Engineers-Plastic,,"$652,000 ",Atl-Ss-Rswl,2670 N Berk Lk Rd NW,,
Diamond Dental Instruments Inc,Charlie,Kim,925 Cripple Creek Dr # 100,Lawrenceville,GA,(770) 867-3622,Sharpening Service,Sharpening Service,Dental Equipment & Supplies-Wholesale,"$740,000 ",Atl-Ss-Rswl,925 Cripple Creek Dr,33.98572816296381,-83.98774371349062
Digestive Care Physicains LLC,Jae H,Kim,6300 Hospital Pkwy # 450,Johns Creek,GA,(770) 227-2222,Physicians & Surgeons,Physicians & Surgeons,,"$670,000 ",Atl-Ss-Rswl,6300 Hospital Pkwy,34.069062,-84.175125
Discount Nutrition,Kyung,Kim,1860 Duluth Hwy # 102,Lawrenceville,GA,(770) 513-1211,Vitamin & Food Supplements,Vitamin & Food Supplements,,"$560,000 ",Atl-Ss-Rswl,1860 Duluth Hwy,33.9666715,-84.0138716
Domain Capital Advisors LLC,Jenny,Kim,1230 Peachtree St NE # 3600,Atlanta,GA,(770) 628-0700,Consultants-Business NEC,Consultants-Business NEC,Investment Management,"$433,000 ",Atl-Ss-Rswl,1230 Peachtree St NE,33.7878743,-84.38511349445857
Donnie's Country Cookin,Niki,Kim,3300 Clairmont Rd NE # A,Brookhaven,GA,(404) 728-1188,Restaurants,Restaurants,,"$206,000 ",Atl-Ss-Rswl,3300 Clairmont Rd NE,33.858173,-84.311977
Donut Palace,Tae,Kim,390 Battlefield Pkwy,Fort Oglethorpe,GA,(706) 866-6444,Doughnuts,Doughnuts,Bakers-Retail,"$87,000 ",Chattanooga,390 Battlefield Pkwy,34.9566632,-85.2653666
Donut Palace,Yong,Kim,854 Buford Dr # D,Lawrenceville,GA,(770) 513-2814,Doughnuts,Doughnuts,Bakers-Retail,"$49,000 ",Atl-Ss-Rswl,854 Buford Dr,33.985498,-83.984749
DSK USA,Jeff,Kim,1000 Satellite Blvd NW # 104,Suwanee,GA,(770) 409-9900,Importers (Whls),Importers (Whls),Exporters (Whls),"$10,952,000 ",Atl-Ss-Rswl,1000 Satellite Blvd NW,34.0391159,-84.0470684
Duluth Chiropractic,Jooyoung,Kim,3705 Old Norcross Rd # 400,Duluth,GA,(770) 476-7676,Chiropractors DC,Chiropractors DC,,"$262,000 ",Atl-Ss-Rswl,3705 Old Norcross Rd,,
Duluth Dental & Dentures LLC,Sook,Kim,1625 Pleasant Hill Rd,Duluth,GA,(678) 924-9848,Dentists,Dentists,,"$601,000 ",Atl-Ss-Rswl,1625 Pleasant Hill Rd,33.9427313,-84.1287153
Duluth Dental & Dentures LLC,Joshua,Kim,1625 Pleasant Hill Rd # 1410,Duluth,GA,(678) 924-9848,Dentists,Dentists,,"$751,000 ",Atl-Ss-Rswl,1625 Pleasant Hill Rd,33.9427313,-84.1287153
Dunwoody Dental Care,Chol T,Kim,2494 Jett Ferry Rd,Atlanta,GA,(770) 393-1524,Dentists,Dentists,,"$528,000 ",Atl-Ss-Rswl,2494 Jett Ferry Rd,,
Dunwoody Dental Care,Terry C,Kim,2494 Jett Ferry Rd # 101,Atlanta,GA,(770) 393-1524,Dentists,Dentists,,"$528,000 ",Atl-Ss-Rswl,2494 Jett Ferry Rd,,
Dutchtown High School,Woo,Kim,149 Mitchell Rd,Hampton,GA,(770) 515-7510,Sports Clubs,Sports Clubs,Schools,"$6,571,000 ",Atl-Ss-Rswl,149 Mitchell Rd,33.4707702,-84.2533895
East Coast Aviation LLC,Kevin,Kim,5910 Shiloh Rd E # 105,Alpharetta,GA,(770) 886-7758,Airline Support Services,Airline Support Services,Aircraft-Dealers,"$361,000 ",Atl-Ss-Rswl,5910 Shiloh Rd E,,
Eastern Corp,Peter,Kim,4274 Shackleford Rd # A2,Norcross,GA,(678) 355-9010,Roofing Contractors,Roofing Contractors,General Contractors,"$383,000 ",Atl-Ss-Rswl,4274 Shackleford Rd,,
Ebenezer Dental Lab,Soon K,Kim,733 Rocky Branch Ln,Evans,GA,(706) 305-1119,Laboratories-Dental,Laboratories-Dental,,"$77,000 ",Augusta,733 Rocky Branch Ln,,
Eden Realty,Ben,Kim,1340 Berwick Ave NE,Atlanta,GA,(404) 875-3266,Real Estate,Real Estate,,"$553,000 ",Atl-Ss-Rswl,1340 Berwick Ave NE,33.791042950000005,-84.35921535
Einstein Bros Bagels,Anthony,Kim,5530 Windward Pkwy # 400,Alpharetta,GA,(678) 339-1866,Bagels,Bagels,Coffee & Tea,"$405,000 ",Atl-Ss-Rswl,5530 Windward Pkwy,34.0881532,-84.266279
Ellard Cleaners,Theresa,Kim,8400 Holcomb Bridge Rd # 400,Alpharetta,GA,(770) 552-7420,Cleaners,Cleaners,,"$338,000 ",Atl-Ss-Rswl,8400 Holcomb Bridge Rd,33.9854867,-84.2709642
Ellen's Nails Shop,Yocheon,Kim,4338 Paces Ferry Rd SE # 102,Atlanta,GA,Not Available,Manicuring,Manicuring,,"$133,000 ",Atl-Ss-Rswl,4338 Paces Ferry Rd SE,,
Emory Clinic,Joung Y,Kim,1365 Clifton Rd NE # B2200,Atlanta,GA,(404) 778-2020,Physicians & Surgeons,Physicians & Surgeons,,"$608,000 ",Atl-Ss-Rswl,1365 Clifton Rd NE,33.7918108,-84.3203513
Emory Clinic,Joung Y,Kim,5671 Ptree Dun Rd NE # 400,Atlanta,GA,(404) 778-2020,Physicians & Surgeons,Physicians & Surgeons,,"$670,000 ",Atl-Ss-Rswl,5671 Ptree Dun Rd NE,,
Emory Healthcare,Hee Joon,Kim,1365b Clifton Rd NE,Atlanta,GA,(404) 778-2020,Physicians & Surgeons,Physicians & Surgeons,,"$608,000 ",Atl-Ss-Rswl,1365b Clifton Rd NE,33.772691,-84.33188
Emory Heart Ctr,John D,Kim,1365 Clifton Rd NE,Atlanta,GA,(404) 778-3206,Physicians & Surgeons,Physicians & Surgeons,,"$608,000 ",Atl-Ss-Rswl,1365 Clifton Rd NE,33.7918108,-84.3203513
Emory Johns Creek Hospital,Annie,Kim,10692 Medlock Brg Rd # 100-A,Johns Creek,GA,(404) 446-2496,Physicians & Surgeons,Physicians & Surgeons,,"$670,000 ",Atl-Ss-Rswl,10692 Medlock Brg Rd,,
Empire Enterprise,Amy,Kim,5736 Buford Hwy NE,Doraville,GA,(770) 234-9232,Jewelers Supplies (Whls),Jewelers Supplies (Whls),,"$5,094,000 ",Atl-Ss-Rswl,5736 Buford Hwy NE,,
Empress Beauty Distributor Inc,Alex,Kim,5815 Brook Hollow Pkwy # D,Norcross,GA,(770) 409-0345,Beauty Salons-Equipment & Supplies (Whls),Beauty Salons-Equipment & Supplies (Whls),,"$7,563,000 ",Atl-Ss-Rswl,5815 Brook Hollow Pkwy,33.920152,-84.199884
Ent Of Georgia,Jenny C,Kim,5673 Ptree Dun Rd NE # 150,Atlanta,GA,(404) 297-4230,Physicians & Surgeons,Physicians & Surgeons,,"$224,000 ",Atl-Ss-Rswl,5673 Ptree Dun Rd NE,,
Ent Of Georgia,Jenny C,Kim,484 Irvin Ct # D140,Decatur,GA,(404) 297-4230,Physicians & Surgeons,Physicians & Surgeons,,"$203,000 ",Atl-Ss-Rswl,484 Irvin Ct,,
