Company Name,Executive First Name,Executive Last Name,Address,City,State,Phone Number Combined,Primary SIC Description,SIC Code 1 Description,SIC Code 2 Description,Location Sales Volume Actual,Metro Area 1,Address1,lat,lon
"Gang, Laura L",Laura L,Gang,8001 S US Highway 75,Sherman,TX,(215) 859-7243,Nurses-Registered Rn,Nurses-Registered Rn,,$0 ,Sherman,8001 S US Highway 75,,
Hi-Line Electric Co,Jeff,Gang,2121 Valley View Ln,Dallas,TX,(972) 247-6200,Electric Equipment & Supplies-Wholesale,Electric Equipment & Supplies-Wholesale,Federal Government Contractors,"$81,949,000 ",Dallas F Wth,2121 Valley View Ln,32.92220730866982,-96.90749214589633
J One Enterprises Inc,Sophia,Gang,10909 Grissom Ln,Dallas,TX,(972) 243-4599,Moldings (Whls),Moldings (Whls),,"$7,465,000 ",Dallas F Wth,10909 Grissom Ln,32.8966407,-96.8875571242366
Monarch Moulding,Sophia,Gang,10909 Grissom Ln,Dallas,TX,(972) 243-4599,Wholesalers,Wholesalers,Sewer Cleaning Equipment & Supplies-Mfrs,"$11,782,000 ",Dallas F Wth,10909 Grissom Ln,32.8966407,-96.8875571242366
Shrimp Island,Jiann P,Gang,6405 Antoine Dr # 15,Houston,TX,(713) 681-1684,Restaurants,Restaurants,Seafood-Retail,"$191,000 ",Houston,6405 Antoine Dr,29.8595745489153,-95.47344423820556
Sweetfrog,San,Gang,1646 W Henderson St # C,Cleburne,TX,(817) 774-2224,Yogurt,Yogurt,,"$509,000 ",Dallas F Wth,1646 W Henderson St,32.336604,-97.4187
Abilene Investments LLC,Han J,Kang,1525 E Stamford St,Abilene,TX,Not Available,Investments,Investments,,"$3,410,000 ",Abilene,1525 E Stamford St,32.475109149999994,-99.6990293798546
Abrams Hair & Beauty Supply,Cathy,Kang,5816 Abrams Rd,Dallas,TX,(214) 378-9622,Cosmetics & Perfumes-Retail,Cosmetics & Perfumes-Retail,,"$175,000 ",Dallas F Wth,5816 Abrams Rd,32.8556619,-96.7503177
Accuver Americas Inc,Benjamin,Kang,500 N Central Expy # 210,Plano,TX,(469) 241-6100,Cellular Telephones (Services),Cellular Telephones (Services),Cellular Telephones-Equipment & Supls,"$3,954,000 ",Dallas F Wth,500 N Central Expy,33.075243,-96.6865565
Achalasia Assistance-Advocacy,Brandon,Kang,4616 Valerie St,Bellaire,TX,Not Available,Nonclassified Establishments,Nonclassified Establishments,,$0 ,Houston,4616 Valerie St,29.694103897959184,-95.45593495918367
All Seasons Food Store,Vincent,Kang,5700 Gessner Rd,Houston,TX,(713) 939-0886,Convenience Stores,Convenience Stores,Service Stations-Gasoline & Oil,"$1,226,000 ",Houston,5700 Gessner Rd,29.850259,-95.54501
Amax Valley LLC,Chuck,Kang,4870 Sunnyvale St,Dallas,TX,Not Available,Nonclassified Establishments,Nonclassified Establishments,,$0 ,Dallas F Wth,4870 Sunnyvale St,32.69558645,-96.77234110153523
Anesthesiologists For Children,Lisa,Kang,1935 Medical District Dr,Dallas,TX,(214) 456-1814,Physicians & Surgeons,Physicians & Surgeons,,"$723,000 ",Dallas F Wth,1935 Medical District Dr,32.80947825,-96.83754657660697
Ascension Seton Northwest,June-Ku,Kang,11111 Research Blvd # 300,Austin,TX,(512) 380-9200,Physicians & Surgeons,Physicians & Surgeons,Pulmonary & Respiratory Diseases,"$606,000 ",Austin,11111 Research Blvd,30.3699522,-97.7193589
Austin Childrens Chest Assoc,June-Ku,Kang,1301 B Jordan Blvd # 303,Austin,TX,(512) 380-9200,Physicians & Surgeons,Physicians & Surgeons,,"$606,000 ",Austin,1301 B Jordan Blvd,,
Bank Of America,Sean,Kang,2535 W Wheatland Rd,Dallas,TX,(972) 283-0108,Banks,Banks,Federal Reserve Banks,"$3,077,000 ",Dallas F Wth,2535 W Wheatland Rd,32.64808295,-96.86048158296438
BBV Capital Asset Holdings LLC,Irene,Kang,9525 Katy Fwy # 420,Houston,TX,Not Available,Holding Companies (Non-Bank),Holding Companies (Non-Bank),,"$3,015,000 ",Houston,9525 Katy Fwy,29.785149,-95.53152064179105
Beauty Outlet,Tammy,Kang,2729 New Boston Rd # 30,Texarkana,TX,(903) 832-4951,Beauty Salons-Equipment & Supplies (Whls),Beauty Salons-Equipment & Supplies (Whls),,"$5,421,000 ",Texarkana,2729 New Boston Rd,33.434879,-94.0797244
Beauty R US,Paul,Kang,13531 Montfort Dr # 105,Dallas,TX,(972) 788-5349,Beauty Salons,Beauty Salons,Cosmetics & Perfumes-Retail,"$247,000 ",Dallas F Wth,13531 Montfort Dr,32.93203060437093,-96.81304824709541
Beauty R Us,Paul,Kang,1031 E Pleasant Run Rd # 101,Desoto,TX,(972) 224-2229,Beauty Salons,Beauty Salons,Cosmetics & Perfumes-Retail,"$83,000 ",Dallas F Wth,1031 E Pleasant Run Rd,32.60406661625749,-96.83226661461202
Bert The Spider LLC,Jane,Kang,4031 Kirkpatrick Ln # 100,Flower Mound,TX,(972) 691-2700,Illustrators,Illustrators,,"$1,979,000 ",Dallas F Wth,4031 Kirkpatrick Ln,33.03975305063291,-97.04466702531646
Best Fabrics,Sung W,Kang,2651 Perth St,Dallas,TX,(972) 726-8888,Fabric Shops,Fabric Shops,Drapery & Curtain Cleaners,"$395,000 ",Dallas F Wth,2651 Perth St,32.87745788235026,-96.8861218122369
Better Living Med Supl & Eqpt,Young S,Kang,11500 N Stemmons Fwy # 126,Dallas,TX,(972) 982-2228,Physicians & Surgeons Equip & Supls-Whls,Physicians & Surgeons Equip & Supls-Whls,,$0 ,Dallas F Wth,11500 N Stemmons Fwy,32.9013074,-96.89703125844488
Bible Loving Church,Young S,Kang,11500 N Stemmons Fwy # 126,Dallas,TX,Not Available,Churches,Churches,,$0 ,Dallas F Wth,11500 N Stemmons Fwy,32.9013074,-96.89703125844488
Blue Motors,In M,Kang,11645 Denton Dr,Dallas,TX,(469) 534-0194,Automobile/Trucks Dealers-Used,Automobile/Trucks Dealers-Used,,"$4,290,000 ",Dallas F Wth,11645 Denton Dr,32.90564645,-96.89228244070014
Bradford Realty Svc Inc,James,Kang,600 Texas St # 100,Fort Worth,TX,(817) 921-8170,Real Estate,Real Estate,,"$2,243,000 ",Dallas F Wth,600 Texas St,32.74908335,-97.33416287518588
Brinks Home,Min,Kang,1990 Wittington Pl,Dallas,TX,(469) 391-4024,Security Systems,Security Systems,,$0 ,Dallas F Wth,1990 Wittington Pl,32.9151524,-96.9247436
Capital One,David,Kang,6161 Retail Rd,Dallas,TX,(214) 414-3882,Banks,Banks,,"$2,517,000 ",Dallas F Wth,6161 Retail Rd,32.86174507149498,-96.75433675720562
Children's Health Imaging Ctr,Lisa,Kang,17051 Dallas Pkwy # 200,Addison,TX,(972) 248-0077,Physicians & Surgeons,Physicians & Surgeons,,"$723,000 ",Dallas F Wth,17051 Dallas Pkwy,32.9837034,-96.8293098
Civitas Automotive Inc,Joseph,Kang,9050 Emnora Ln # B,Houston,TX,Not Available,Automobile Repairing & Service,Automobile Repairing & Service,,"$352,000 ",Houston,9050 Emnora Ln,29.81593,-95.520582
CMK Real Estate LLC,Casey M,Kang,1549 Campbell Rd,Houston,TX,Not Available,Real Estate Management,Real Estate Management,,"$580,000 ",Houston,1549 Campbell Rd,29.798266,-95.513978
Coca-Cola Bottling Co,Wendell,Kang,6445 Lemmon Ave,Dallas,TX,(214) 654-4100,Soft Drink Products-Manufacturers,Soft Drink Products-Manufacturers,Bottlers (Mfrs),"$38,069,000 ",Dallas F Wth,6445 Lemmon Ave,32.835454,-96.83321553923977
College Hunks Hauling Junk,Rich,Kang,405 Powerhouse # 502,Mckinney,TX,(972) 503-4606,Movers,Movers,Junk Removal,"$1,694,000 ",Dallas F Wth,405 Powerhouse,33.2306416,-96.6186165
Comet Cleaners,Han,Kang,7730 Forest Ln,Dallas,TX,(214) 692-5200,Cleaners,Cleaners,,"$559,000 ",Dallas F Wth,7730 Forest Ln,32.90962316739029,-96.77264485841795
Comfort Inn Early Brownwood,Selona,Kang,204 Early Blvd,Early,TX,(325) 641-3400,Hotels & Motels,Hotels & Motels,,"$1,105,000 ",Brownwood,204 Early Blvd,31.734285897349338,-98.96594496077866
Corner Pocket,Jennifer M,Kang,202 E Veterans Memorial Blvd,Killeen,TX,Not Available,Billiard Parlors,Billiard Parlors,,"$442,000 ",Killeen-Tmpl,202 E Veterans Memorial Blvd,31.117394591836735,-97.72982779591837
Costco Wholesale,Ku,Kang,8055 Churchill Way,Dallas,TX,(469) 680-7546,Wholesale Clubs,Wholesale Clubs,Department Stores,"$34,266,000 ",Dallas F Wth,8055 Churchill Way,32.920049,-96.76673739939025
Costco Wholesale,Ku,Kang,851 State Highway 121 Byp,Lewisville,TX,(469) 948-1026,Wholesale Clubs,Wholesale Clubs,Department Stores,"$34,427,000 ",Dallas F Wth,851 State Highway 121 Byp,,
Crafty Crab Restaurant,David,Kang,11105 Fondren Rd,Houston,TX,(713) 820-6888,Restaurants,Restaurants,,$0 ,Houston,11105 Fondren Rd,29.659032461538462,-95.5083476923077
D E I Development Inc,Jin G,Kang,409 Foster Ln,Lewisville,TX,Not Available,Nonclassified Establishments,Nonclassified Establishments,,$0 ,Dallas F Wth,409 Foster Ln,33.02257574310933,-96.99943132644475
Daewoo Ship Bldg-Mrne Engrng,Sue,Kang,950 Threadneedle St # 270,Houston,TX,(281) 679-1322,Industrial Equipment & Supplies (Whls),Industrial Equipment & Supplies (Whls),,"$5,526,000 ",Houston,950 Threadneedle St,29.782629364034758,-95.60942195894587
Dairy Farmers Of America,John,Kang,3500 Wm D Tate Ave # 100,Grapevine,TX,(817) 410-4500,Dairy Products-Wholesale,Dairy Products-Wholesale,Dairies (Milk),"$57,468,000 ",Dallas F Wth,3500 Wm D Tate Ave,32.90478732317007,-97.09999484239285
Dallas Korean Trade Assn,David,Kang,11500 N Stemmons Fwy # 144,Dallas,TX,Not Available,Associations,Associations,,$0 ,Dallas F Wth,11500 N Stemmons Fwy,32.9013074,-96.89703125844488
Daniels-Lovelady Architecture,Elizabeth,Kang,669 Airport Fwy # 101,Hurst,TX,(817) 510-6730,Architects,Architects,Architects & Builders Service,"$686,000 ",Dallas F Wth,669 Airport Fwy,32.8387237,-97.1829879
Dasi Sushi & Asian Cuisine,Jeomsook,Kang,1902 Chico Hwy,Bridgeport,TX,(940) 683-3597,Restaurants,Restaurants,,$0 ,Dallas F Wth,1902 Chico Hwy,33.217473733552666,-97.76796946661699
Dell Children's Med Group,June-Ku,Kang,6811 Austin Ctr Blvd # 400,Austin,TX,(512) 380-9200,Pulmonary & Respiratory Diseases,Pulmonary & Respiratory Diseases,Physicians & Surgeons,"$202,000 ",Austin,6811 Austin Ctr Blvd,30.350713,-97.750423
Dino K Shoe Repair-Alterations,Hyun,Kang,2129 W Parker Rd,Plano,TX,(972) 596-8209,Shoe & Boot Repairing,Shoe & Boot Repairing,,"$134,000 ",Dallas F Wth,2129 W Parker Rd,33.0414139,-96.7354058
Donut Paradise,Sun,Kang,1104 N Highway 377 # 203,Roanoke,TX,(817) 961-0655,Restaurants,Restaurants,Doughnuts,"$104,000 ",Dallas F Wth,1104 N Highway 377,33.009116000000006,-97.22215859771113
E-Z Auto Title & Postal,Kanwaljit,Kang,12837 Westheimer Rd,Houston,TX,(281) 556-0044,Title Companies,Title Companies,,"$315,000 ",Houston,12837 Westheimer Rd,29.73609776633166,-95.61337386432162
Eastern Chi LLC,Zhengfu,Kang,10312 Burtrum Dr,Fort Worth,TX,Not Available,Nonclassified Establishments,Nonclassified Establishments,,$0 ,Dallas F Wth,10312 Burtrum Dr,,
Empyrean Benefit Solutions,Hyungoo,Kang,3010 Briarpark Dr # 8000,Houston,TX,(281) 768-2900,Employee Benefit Consultants,Employee Benefit Consultants,Financial Advisory Services,$0 ,Houston,3010 Briarpark Dr,29.73663116222778,-95.54847667837193
Energy Transfer Partners,Jinsook,Kang,1870 Mykawa Rd,Pearland,TX,(817) 389-2850,Pipe Line Companies,Pipe Line Companies,Energy Management Systems & Products,"$18,893,000 ",Houston,1870 Mykawa Rd,29.574202267676768,-95.29472003030303
Equipment Depot,Joseph,Kang,16330 Air Center Blvd,Houston,TX,(903) 891-3000,Trucks-Industrial (Whls),Trucks-Industrial (Whls),,$0 ,Houston,16330 Air Center Blvd,,
Eugene Y Kang MD,Eugene Y,Kang,2717 W Baker Rd # 1,Baytown,TX,(281) 427-9505,Physicians & Surgeons,Physicians & Surgeons,,"$659,000 ",Houston,2717 W Baker Rd,29.76954526530612,-94.98772883673469
Everwood Inc,Lianli,Kang,6918 Corporate Dr # A13,Houston,TX,Not Available,Nonclassified Establishments,Nonclassified Establishments,,$0 ,Houston,6918 Corporate Dr,29.704521403070718,-95.55154984866475
Extraco Banks,Young,Kang,100 W Central Texas Expy,Harker Heights,TX,(254) 200-3600,Banks,Banks,Loans,"$5,092,000 ",Killeen-Tmpl,100 W Central Texas Expy,31.0729496,-97.6601157
Fast Break Food Mart,Paul,Kang,401 S Lake Dallas Dr,Lake Dallas,TX,(940) 497-5250,Service Stations-Gasoline & Oil,Service Stations-Gasoline & Oil,Convenience Stores,"$6,863,000 ",Dallas F Wth,401 S Lake Dallas Dr,33.11739,-97.02808
Finesense Global Inc,Yongqing,Kang,2301 W Plano Pkwy # 102,Plano,TX,Not Available,Nonclassified Establishments,Nonclassified Establishments,,$0 ,Dallas F Wth,2301 W Plano Pkwy,33.00751,-96.737685
Fish & Chicks,Minku,Kang,7955 Barker Cypress Rd # 200,Cypress,TX,(281) 656-8270,Restaurants,Restaurants,,"$319,000 ",Houston,7955 Barker Cypress Rd,29.8921508,-95.6844758
Fish Skillet Seafood,Minku,Kang,12289 W Houston Ctr Blvd # A,Houston,TX,(281) 741-7165,Restaurants,Restaurants,,"$382,000 ",Houston,12289 W Houston Ctr Blvd,29.735617650485437,-95.59249405825243
Gastroenterology Consultants,Hyon S,Kang,9918 Vintage Villa Dr,Houston,TX,Not Available,Medical Management Consultants,Medical Management Consultants,,"$617,000 ",Houston,9918 Vintage Villa Dr,,
Gensler,Yunhee,Kang,909 Fannin St # 200,Houston,TX,(713) 844-0000,Architects,Architects,Interior Decorators Design & Consultants,"$12,514,000 ",Houston,909 Fannin St,29.7562118,-95.3632783
Get It Beauty Eppo Eppo,Joanne M,Kang,11445 Emerald St # 120d,Dallas,TX,Not Available,Cosmetics & Perfumes-Retail,Cosmetics & Perfumes-Retail,,"$350,000 ",Dallas F Wth,11445 Emerald St,32.897193900000005,-96.90002307382198
Gin Star Cleaners,Soa,Kang,3312 N Buckner Blvd # 230,Dallas,TX,(214) 320-1804,Cleaners,Cleaners,,"$187,000 ",Dallas F Wth,3312 N Buckner Blvd,32.80160337418886,-96.6820260486686
Ginghis Donuts & Lunch,Ginghis,Kang,2211 N Story Rd,Irving,TX,(972) 255-6632,Restaurants,Restaurants,,"$62,000 ",Dallas F Wth,2211 N Story Rd,32.8301698,-96.9765138
Glaze Donuts,Channdara,Kang,4517 N Highway 146,Baytown,TX,(832) 926-4926,Doughnuts,Doughnuts,,"$133,000 ",Houston,4517 N Highway 146,29.8082541,-94.9029321
Glazed Dounuts,Channdara,Kang,2707 Market St,Baytown,TX,Not Available,Doughnuts,Doughnuts,,"$133,000 ",Houston,2707 Market St,29.72686509285276,-95.00018417438449
Good Morning World LLC,Michael,Kang,802 N Main St,Cleburne,TX,Not Available,Nonclassified Establishments,Nonclassified Establishments,,$0 ,Dallas F Wth,802 N Main St,32.357502,-97.38936499099205
H M L Trading LLC,Le,Kang,7805 Element Ave,Plano,TX,Not Available,Nonclassified Establishments,Nonclassified Establishments,,$0 ,Dallas F Wth,7805 Element Ave,,
Haeun Group LLC,Hye I,Kang,2701 Old Denton Rd # 270,Carrollton,TX,Not Available,Nonclassified Establishments,Nonclassified Establishments,,$0 ,Dallas F Wth,2701 Old Denton Rd,32.9881463,-96.9103907
Hair & Co,Yueh Mei,Kang,2034a W Gray St # 130,Houston,TX,(713) 521-7070,Beauty Salons,Beauty Salons,,"$255,000 ",Houston,2034a W Gray St,29.7535995,-95.4099088
Hair City Beauty Supply,Matthew,Kang,5723 N Foster Rd # 106,San Antonio,TX,(210) 661-5234,Cosmetics & Perfumes-Retail,Cosmetics & Perfumes-Retail,,"$401,000 ",San Antonio,5723 N Foster Rd,29.47873235338573,-98.35986925288672
Hebron Donuts,Yong,Kang,721 Hebron Pkwy # 106,Lewisville,TX,(214) 488-3732,Doughnuts,Doughnuts,,"$122,000 ",Dallas F Wth,721 Hebron Pkwy,33.01017975,-96.96951738249763
Heritage Cafe,Aeran,Kang,15825 Hope Village Rd,Friendswood,TX,Not Available,Restaurants,Restaurants,,"$510,000 ",Houston,15825 Hope Village Rd,29.5450144,-95.1796977
Hisun Motors Corp USA,Thomas,Kang,310 E University Dr,Mckinney,TX,(972) 446-0760,Automobile/Trucks Dealers-Used,Automobile/Trucks Dealers-Used,,"$1,356,000 ",Dallas F Wth,310 E University Dr,33.1914303,-96.5524297
Hot & Creamy Donuts,Joanna,Kang,301 Trophy Lake Dr # 108,Trophy Club,TX,(817) 567-3032,Doughnuts,Doughnuts,Restaurants,"$61,000 ",Dallas F Wth,301 Trophy Lake Dr,32.9988445,-97.2055339
Houston Pain Specialists,Hui S,Kang,5420 Dashwood Dr # 103,Houston,TX,(713) 664-2662,Pain Control,Pain Control,Physicians & Surgeons,"$2,573,000 ",Houston,5420 Dashwood Dr,29.707515979591836,-95.47486191836735
Houston Stat Medical Supply,Stanley S,Kang,12302 Van Buren St # A,Houston,TX,(713) 779-0644,Physicians & Surgeons Equip & Supls-Whls,Physicians & Surgeons Equip & Supls-Whls,Federal Government Contractors,"$10,130,000 ",Houston,12302 Van Buren St,29.7571261,-95.3940029
I C Semiconductor Inc,Joseph,Kang,7105 Avignon Dr,Round Rock,TX,(512) 963-1798,Computer & Equipment Dealers,Computer & Equipment Dealers,,"$269,000 ",Austin,7105 Avignon Dr,,
IQ 2020,Charles,Kang,2401 S Stemmons Fwy # 1130,Lewisville,TX,(972) 620-1234,Optical Goods-Retail,Optical Goods-Retail,,"$118,000 ",Dallas F Wth,2401 S Stemmons Fwy,33.00142115,-96.97068484283551
Jefferson Dental Clinic,Hee,Kang,701 S Stemmons Fwy # 270,Lewisville,TX,(972) 350-0111,Dentists,Dentists,Clinics,"$2,386,000 ",Dallas F Wth,701 S Stemmons Fwy,33.039977562436064,-97.00459597131862
Joa Realty,Susie,Kang,800 Newman Dr,Austin,TX,(512) 480-8384,Real Estate,Real Estate,Real Estate Buyers & Brokers,"$485,000 ",Austin,800 Newman Dr,30.2843295,-97.7757023793573
K Donuts,Dong,Kang,4601 Benbrook Hwy,Fort Worth,TX,(817) 732-3112,Doughnuts,Doughnuts,,"$138,000 ",Dallas F Wth,4601 Benbrook Hwy,32.706944750000005,-97.4484737850486
Kang & Lee Investment LLC,Jeong S,Kang,406 S Hampton Rd,Dallas,TX,Not Available,Investments,Investments,,"$2,383,000 ",Dallas F Wth,406 S Hampton Rd,32.74213282758418,-96.85662748402359
Kang Chia-DAN MD,Chia-Dan,Kang,1600 Providence Dr,Waco,TX,(254) 313-4200,Physicians & Surgeons,Physicians & Surgeons,,$0 ,Waco,1600 Providence Dr,31.558698,-97.154626
Kang Cindy S DDS,Cindy S,Kang,15950 Eldorado Pkwy # 100,Frisco,TX,(972) 540-9977,Dentists,Dentists,,"$612,000 ",Dallas F Wth,15950 Eldorado Pkwy,33.1750146,-96.73501139999999
Kang DDS PA,Yoon C,Kang,1628 W Hebron Pkwy # 108,Carrollton,TX,(972) 492-0002,Dentists,Dentists,,"$572,000 ",Dallas F Wth,1628 W Hebron Pkwy,33.024096,-96.937871
Kang DDS PA,Yoon C,Kang,1628 W Hebron Pkwy # 108,Carrollton,TX,(972) 492-0002,Dentists,Dentists,,"$715,000 ",Dallas F Wth,1628 W Hebron Pkwy,33.024096,-96.937871
Kang Dental,Yoon C,Kang,2625 Old Denton Rd # 101,Carrollton,TX,(972) 242-3737,Dentists,Dentists,,"$747,000 ",Dallas F Wth,2625 Old Denton Rd,32.9870341,-96.9113886
Kang Dental,Yoon C,Kang,2625 Old Denton Rd # 101,Carrollton,TX,(972) 242-3737,Dentists,Dentists,,"$597,000 ",Dallas F Wth,2625 Old Denton Rd,32.9870341,-96.9113886
Kang Florena Sharon Mamb PT,Florena S,Kang,7502 Eldorado Pkwy # 100,Mckinney,TX,(469) 424-3212,Physical Therapists,Physical Therapists,,$0 ,Dallas F Wth,7502 Eldorado Pkwy,33.1741421,-96.7093746
Kang Grace DO,Grace,Kang,2401 S 31st St,Temple,TX,(254) 724-2111,Physicians & Surgeons,Physicians & Surgeons,,"$398,000 ",Killeen-Tmpl,2401 S 31st St,31.07785755,-97.36273013920454
Kang Hyon Sik DO,Hyon S,Kang,1331 W Grand Pkwy N # 350,Katy,TX,(281) 392-0425,Physicians & Surgeons,Physicians & Surgeons,,"$659,000 ",Houston,1331 W Grand Pkwy N,,
Kang Hyon Sik DO,Hyon S,Kang,21777 Merchants Way # 410,Katy,TX,(281) 895-2186,Physicians & Surgeons,Physicians & Surgeons,,$0 ,Houston,21777 Merchants Way,,
Kang June DO,June,Kang,5903 Babcock Rd,San Antonio,TX,(210) 465-1000,Physicians & Surgeons,Physicians & Surgeons,,$0 ,San Antonio,5903 Babcock Rd,29.527232022911097,-98.60149487059186
Kang's Taekwondo,Sung Hwan,Kang,1389 W US Highway 77,San Benito,TX,(956) 361-4900,Martial Arts Instruction,Martial Arts Instruction,,"$65,000 ",Brownsville,1389 W US Highway 77,,
"Kang, Cynthia OD",Cynthia,Kang,6842 Lebanon Rd # 101,Frisco,TX,(972) 712-7890,Optometrists OD,Optometrists OD,,$0 ,Dallas F Wth,6842 Lebanon Rd,33.12416175,-96.8256417
"Kang, Daeyong J DDS",Daeyong J,Kang,697 Louisiana Rd,Dyess AFB,TX,(325) 696-4262,Dentists,Dentists,,$0 ,Abilene,697 Louisiana Rd,,
"Kang, Das Hey",Das Hey,Kang,1520 S Valley Mills Dr,Beverly Hills,TX,(254) 752-3986,Pharmacists,Pharmacists,,$0 ,Waco,1520 S Valley Mills Dr,31.5260156,-97.1414179
"Kang, David R MD",David R,Kang,1411 N Beckley Ave,Dallas,TX,(469) 713-2038,Physicians & Surgeons,Physicians & Surgeons,,"$723,000 ",Dallas F Wth,1411 N Beckley Ave,32.613402896551726,-96.82351489655173
"Kang, Deborah Dpt",Deborah,Kang,200 Medical Pkwy # 260,Lakeway,TX,(214) 684-3748,Physical Therapists,Physical Therapists,,"$77,000 ",Austin,200 Medical Pkwy,30.332131563022443,-97.97113433551574
"Kang, Esther S DDS",Esther S,Kang,6711 S New Brnfl Ave # 500,San Antonio,TX,(210) 531-3832,Dentists,Dentists,,"$530,000 ",San Antonio,6711 S New Brnfl Ave,,
"Kang, Hui MD",Hui,Kang,1111 Medical Plaza Dr # 250,The Woodlands,TX,(936) 755-4412,Physicians & Surgeons,Physicians & Surgeons,,"$662,000 ",Houston,1111 Medical Plaza Dr,30.172566492467674,-95.45397943504918
"Kang, Hyun Seon MD",Hyun Seon,Kang,1515 Holcombe Blvd,Houston,TX,(713) 792-6161,Physicians & Surgeons,Physicians & Surgeons,,$0 ,Houston,1515 Holcombe Blvd,29.7076703,-95.39782993506569
"Kang, Jay H Do",Jay H,Kang,1140 Business Ctr Dr # 201,Houston,TX,(713) 271-6881,Physicians & Surgeons,Physicians & Surgeons,,"$659,000 ",Houston,1140 Business Ctr Dr,29.789462,-95.568081
"Kang, Julian Do",Julian,Kang,6411 Fannin St,Houston,TX,(713) 704-4000,Physicians & Surgeons,Physicians & Surgeons,,"$220,000 ",Houston,6411 Fannin St,29.713526700000003,-95.39627451784479
"Kang, June Do",June,Kang,3601 4th St # 9406,Lubbock,TX,(806) 743-6630,Physicians & Surgeons,Physicians & Surgeons,,"$794,000 ",Lubbock,3601 4th St,33.5894699,-101.8920203
"Kang, Jung A Dc",Jung A,Kang,1113 E Jefferson Blvd # 100,Dallas,TX,(469) 917-9208,Chiropractors DC,Chiropractors DC,,$0 ,Dallas F Wth,1113 E Jefferson Blvd,32.75401411199777,-96.81084471122463
"Kang, Kim",Kim,Kang,6217 Chapel Hill Blvd # 100,Plano,TX,(972) 842-9500,Nurses-Registered Rn,Nurses-Registered Rn,,$0 ,Dallas F Wth,6217 Chapel Hill Blvd,33.032445140635026,-96.83521843424485
"Kang, Kyongdeuk MD",Kyongdeuk,Kang,3500 Gaston Ave,Dallas,TX,(214) 820-0111,Physicians & Surgeons,Physicians & Surgeons,,"$723,000 ",Dallas F Wth,3500 Gaston Ave,32.789943199999996,-96.77792352832815
"Kang, Melissa L",Melissa L,Kang,1003 Richmond Ave,Houston,TX,(713) 807-8491,Pharmacists,Pharmacists,,"$74,000 ",Houston,1003 Richmond Ave,29.73362865,-95.391516919282
"Kang, Ran",Ran,Kang,10900 Jones Rd,Houston,TX,(281) 377-4995,Nurses-Practitioners,Nurses-Practitioners,,$0 ,Houston,10900 Jones Rd,29.9995781,-95.5854735
"Kang, Ryan S DDS",Ryan S,Kang,36000 Darnall Loop # 1048,Fort Hood,TX,(254) 285-2008,Dentists,Dentists,,"$528,000 ",Killeen-Tmpl,36000 Darnall Loop,,
"Kang, Taeuk",Taeuk,Kang,408 N Giraud,Cotulla,TX,(830) 879-2279,Physicians Assistants,Physicians Assistants,,$0 ,,408 N Giraud,28.437334,-99.2385585
"Kang, Tam T Pa",Tam T,Kang,17110 Dallas Pkwy # 100,Dallas,TX,Not Available,Physicians Assistants,Physicians Assistants,,"$66,000 ",Dallas F Wth,17110 Dallas Pkwy,32.9827166,-96.82777560118697
"Kang, Tam T Pa",Tam T,Kang,3920 W Wheatland Rd # 140,Dallas,TX,(972) 283-5998,Physicians Assistants,Physicians Assistants,,"$66,000 ",Dallas F Wth,3920 W Wheatland Rd,32.647683886969496,-96.88098109686315
"Kang, Younmyung Dpt",Younmyung,Kang,8830 Long Point Rd # 206,Houston,TX,(346) 802-3188,Physical Therapists,Physical Therapists,,$0 ,Houston,8830 Long Point Rd,29.803090941501047,-95.50736164070707
Kangster Corp,Esther M,Kang,2639 Walnut Hill Ln # 225,Dallas,TX,Not Available,Nonclassified Establishments,Nonclassified Establishments,,$0 ,Dallas F Wth,2639 Walnut Hill Ln,32.88154575,-96.88901684364768
Kasasa LTD,Jae,Kang,4516 Seton Center Pkwy # 300,Austin,TX,(512) 418-9590,Marketing Programs & Services,Marketing Programs & Services,Computer Services,$0 ,Austin,4516 Seton Center Pkwy,30.402483793345546,-97.74230793111518
Kdit Inc,Connie,Kang,955 Dairy Ashford Rd # 208,Houston,TX,(281) 496-3659,Importers (Whls),Importers (Whls),,"$1,078,000 ",Houston,955 Dairy Ashford Rd,29.777296666666665,-95.60643533333334
Keylessride,Steven,Kang,920 Rockmoor Dr,Georgetown,TX,(512) 864-3495,Automobile Accessories,Automobile Accessories,,"$6,813,000 ",Austin,920 Rockmoor Dr,30.61445614634146,-97.68864580487805
Kodako Inc,Peter,Kang,1217 Coit Rd,Plano,TX,(972) 867-9683,Restaurants,Restaurants,,"$474,000 ",Dallas F Wth,1217 Coit Rd,33.0154234,-96.7673223
Kolache Factory,Sangmin,Kang,1217 Coit Rd,Plano,TX,(972) 867-9683,Bakers-Retail,Bakers-Retail,Foods-Carry Out,"$1,328,000 ",Dallas F Wth,1217 Coit Rd,33.0154234,-96.7673223
Ky Fashions,Heayoung,Kang,1403 W Mount Houston Rd,Houston,TX,(281) 847-1830,Clothing-Retail,Clothing-Retail,,"$171,000 ",Houston,1403 W Mount Houston Rd,29.898110617798867,-95.42947894755244
Legendary Oaks Golf Course,Min S,Kang,43279 Urban Rd,Hempstead,TX,(979) 826-4001,Golf Courses,Golf Courses,Golf Practice Ranges,"$1,118,000 ",Houston,43279 Urban Rd,30.1241305,-96.1060072
Lielle & Juelle Inc,Chloe Y,Kang,2639 Walnut Hill Ln # 225,Dallas,TX,Not Available,Nonclassified Establishments,Nonclassified Establishments,,$0 ,Dallas F Wth,2639 Walnut Hill Ln,32.88154575,-96.88901684364768
Life Long Weigh,Hui,Kang,5420 Dashwood Dr # 103,Houston,TX,(713) 491-4303,Physicians & Surgeons,Physicians & Surgeons,,"$659,000 ",Houston,5420 Dashwood Dr,29.707515979591836,-95.47486191836735
Lilly's Cafe,Henery,Kang,12655 N Central Expy,Dallas,TX,(972) 392-4444,Restaurants,Restaurants,,"$124,000 ",Dallas F Wth,12655 N Central Expy,32.920693,-96.76662997613039
Lisa Kang Interiors,Lisa,Kang,5903 Pecanwood Ln,Austin,TX,Not Available,Interior Decorators Design & Consultants,Interior Decorators Design & Consultants,Federal Government Contractors,"$352,000 ",Austin,5903 Pecanwood Ln,30.21054,-97.8722124287614
Little Arisu Restaurant,Sang M,Kang,9515 N Lamar Blvd # 230,Austin,TX,Not Available,Restaurants,Restaurants,,"$593,000 ",Austin,9515 N Lamar Blvd,30.364429,-97.694601
Lubbock Korean Calvary Bapt,Song,Kang,4424 35th St,Lubbock,TX,(806) 784-0040,Churches,Churches,Retreat Houses,$0 ,Lubbock,4424 35th St,33.56237644897959,-101.9057322244898
M Kang Marketing LLC,Mantej,Kang,7017 N 10th St # N2,Mcallen,TX,Not Available,Marketing Programs & Services,Marketing Programs & Services,,"$123,000 ",Mc Allen,7017 N 10th St,26.264749653266332,-98.21967948743719
Memory Lane Capital Funds LLC,Jin,Kang,9227 Jensen Dr,Houston,TX,Not Available,Financing,Financing,,"$1,541,000 ",Houston,9227 Jensen Dr,29.845207659445734,-95.34298789903035
Merrill Lynch Fncl Advisor,Ning,Kang,3700 Buffalo Speedway # 100,Houston,TX,(713) 993-1565,Financial Advisory Services,Financial Advisory Services,Financial Planning Consultants,"$354,000 ",Houston,3700 Buffalo Speedway,29.7324635,-95.42920497239082
Metro By T-Mobile Auth Rtlr,Mike,Kang,6008 Camp Bowie Blvd,Fort Worth,TX,(682) 354-4871,Cellular Telephones (Services),Cellular Telephones (Services),Authorized Retailer-Cellular Services,"$1,704,000 ",Dallas F Wth,6008 Camp Bowie Blvd,32.72901623002618,-97.41438280155488
Microsurgery Instruments Inc,Nancy,Kang,4918 Locust St,Bellaire,TX,(713) 664-4707,Physicians & Surgeons Equip & Supls-Whls,Physicians & Surgeons Equip & Supls-Whls,Physicians & Surgeons,"$7,236,000 ",Houston,4918 Locust St,29.70891328571429,-95.46592655102042
Mycomputercareer,Byungho,Kang,12225 Greenville Ave # 500,Dallas,TX,(214) 296-0777,Computer Training,Computer Training,Educational Programs,"$939,000 ",Dallas F Wth,12225 Greenville Ave,32.91439685,-96.74604377578476
Nelson Donuts,Dong,Kang,12700 Midway Rd,Dallas,TX,(972) 233-7832,Doughnuts,Doughnuts,,"$66,000 ",Dallas F Wth,12700 Midway Rd,32.922363250000004,-96.83770561181056
Netpower Technologies Inc,Helen,Kang,2601 Summit Ave # 100,Plano,TX,(972) 509-2700,Electronic Equipment & Supplies-Retail,Electronic Equipment & Supplies-Retail,Federal Government Contractors,"$1,805,000 ",Dallas F Wth,2601 Summit Ave,33.009455,-96.693504
O'Connor Animal Hospital,James,Kang,3014 N O Connor Rd # 100,Irving,TX,(972) 570-0234,Veterinarians,Veterinarians,Animal Hospitals,"$949,000 ",Dallas F Wth,3014 N O Connor Rd,32.84622840904948,-96.95030959358391
Oak Tree Dental,Benhur,Kang,5120 Highway 78 # 400,Sachse,TX,(972) 414-2300,Dentists,Dentists,Federal Government Contractors,"$448,000 ",Dallas F Wth,5120 Highway 78,32.969679,-96.60534031578948
Oak Tree Dental,Benhur W,Kang,5120 Highway 78 # 400,Sachse,TX,(972) 414-2300,Dentists,Dentists,,"$597,000 ",Dallas F Wth,5120 Highway 78,32.969679,-96.60534031578948
Oh-Donuts Corp,Seiyoung T,Kang,2639 Walnut Hill Ln # 225,Dallas,TX,Not Available,Doughnuts,Doughnuts,,"$131,000 ",Dallas F Wth,2639 Walnut Hill Ln,32.88154575,-96.88901684364768
Open Galaxy LLC,Jianjun,Kang,9889 Bellaire Blvd # D249,Houston,TX,Not Available,Nonclassified Establishments,Nonclassified Establishments,,$0 ,Houston,9889 Bellaire Blvd,29.7026437,-95.5553546
Pain Doctor,Hui S,Kang,100 Medical Dr,Lake Jackson,TX,(713) 664-2662,Physicians & Surgeons,Physicians & Surgeons,,"$490,000 ",Houston,100 Medical Dr,29.0298232,-95.4526156627362
Pathways Church Of Houston,Shawn,Kang,5900 Pinemont Dr,Houston,TX,(832) 529-2809,Churches,Churches,,$0 ,Houston,5900 Pinemont Dr,29.840439273381293,-95.47673623021583
Pga Kang Inc,Sunghoon,Kang,11811 Rock Bluff Dr,Frisco,TX,Not Available,Nonclassified Establishments,Nonclassified Establishments,,$0 ,Dallas F Wth,11811 Rock Bluff Dr,33.17664475,-96.85432100348797
Porter Donuts,Chankiry,Kang,25055 Fm 1314 Rd,Porter,TX,(281) 577-1112,Doughnuts,Doughnuts,,"$160,000 ",Houston,25055 Fm 1314 Rd,,
Posk LLC,Sammantha,Kang,2625 Old Denton Rd # 310,Carrollton,TX,Not Available,Attorneys,Attorneys,,"$1,109,000 ",Dallas F Wth,2625 Old Denton Rd,32.9870341,-96.9113886
Premier Family Dentistry,Soyon W,Kang,909 W Spring Creek Pkwy # 490,Plano,TX,(972) 943-5777,Dentists,Dentists,,"$612,000 ",Dallas F Wth,909 W Spring Creek Pkwy,33.0562949375,-96.710610875
Q Cleaner & Shoe Repair,Kee S,Kang,312 N Fort Hood St,Killeen,TX,(254) 526-8080,Cleaners,Cleaners,,"$99,000 ",Killeen-Tmpl,312 N Fort Hood St,31.123434265306123,-97.74183146938775
Q Cleaners & Shoes Repair,Keesuk,Kang,201 W Stan Schlueter Loop,Killeen,TX,(254) 554-3001,Cleaners,Cleaners,,"$346,000 ",Killeen-Tmpl,201 W Stan Schlueter Loop,31.076303,-97.751558
Quarter To Ten,Yoonha,Kang,6800 West Gate Blvd # 119,Austin,TX,(512) 447-1147,Beauty Salons-Equipment & Supplies (Whls),Beauty Salons-Equipment & Supplies (Whls),Wigs Toupees & Hairpieces,"$2,607,000 ",Austin,6800 West Gate Blvd,30.209117,-97.8159486896536
Quercum LLC,Benhur W,Kang,5120 Highway 78 # 400,Sachse,TX,Not Available,Nonclassified Establishments,Nonclassified Establishments,,$0 ,Dallas F Wth,5120 Highway 78,32.969679,-96.60534031578948
R G Miller Engineers Inc,Brandon,Kang,16340 Park Ten Pl # 350,Houston,TX,(713) 461-9600,Engineers-Professional,Engineers-Professional,Engineers,"$19,726,000 ",Houston,16340 Park Ten Pl,29.786766136651853,-95.66569076015406
Rainy Sky Corp,Joanne,Kang,2560 Royal Ln # 121,Dallas,TX,Not Available,Nonclassified Establishments,Nonclassified Establishments,,$0 ,Dallas F Wth,2560 Royal Ln,32.8955452,-96.89263050350318
S Beauty Supply,T,Kang,4420 W Orem Dr,Houston,TX,(713) 413-9993,Cosmetics & Perfumes-Retail,Cosmetics & Perfumes-Retail,,"$153,000 ",Houston,4420 W Orem Dr,29.627514836734694,-95.44422479591837
S S Kang Inc,Sang S,Kang,205 S Main St # 1011,Red Oak,TX,Not Available,Nonclassified Establishments,Nonclassified Establishments,,$0 ,Dallas F Wth,205 S Main St,32.512136,-96.805115
Salvation Army,Peter,Kang,4516 Irvington Blvd,Houston,TX,(713) 692-0522,Social Service & Welfare Organizations,Social Service & Welfare Organizations,Senior Citizens Service,"$419,000 ",Houston,4516 Irvington Blvd,29.8383859,-95.3614905
Salvation Army,Pilmo,Kang,7920 Cook Rd,Houston,TX,(713) 988-5201,Social Service & Welfare Organizations,Social Service & Welfare Organizations,Charitable Institutions,"$335,000 ",Houston,7920 Cook Rd,29.691199296482413,-95.59602752763819
Santa Maria Home Health Agency,Young S,Kang,11500 N Stemmons Fwy # 133,Dallas,TX,(214) 503-8941,Home Health Service,Home Health Service,,"$1,552,000 ",Dallas F Wth,11500 N Stemmons Fwy,32.9013074,-96.89703125844488
Sapporo K M C Plano Inc,Steve,Kang,280 Legacy Dr # 106,Plano,TX,Not Available,Restaurants,Restaurants,,"$474,000 ",Dallas F Wth,280 Legacy Dr,33.067973035268075,-96.69742221322116
Seton Northwest Medical Plaza,J,Kang,11111 Research Blvd # 300,Austin,TX,(512) 380-9200,Physicians & Surgeons,Physicians & Surgeons,Pulmonary & Respiratory Diseases,"$606,000 ",Austin,11111 Research Blvd,30.3699522,-97.7193589
Seton Northwest Medical Plaza,J,Kang,11111 Research Blvd # 300,Austin,TX,(512) 617-1916,Medical Centers,Medical Centers,Physicians & Surgeons,"$2,823,000 ",Austin,11111 Research Blvd,30.3699522,-97.7193589
SK Energy,Brandon,Kang,1300 Post Oak Blvd # 425,Houston,TX,(713) 871-1184,Petroleum Products (Whls),Petroleum Products (Whls),,"$120,337,000 ",Houston,1300 Post Oak Blvd,29.753135649999997,-95.46031990725979
Smile Donuts,Eisung,Kang,1200 E Davis St # 106,Mesquite,TX,(972) 285-1712,Doughnuts,Doughnuts,,"$131,000 ",Dallas F Wth,1200 E Davis St,32.7637666,-96.584326
Solar Turbines Inc,Yuchin,Kang,10203 Sam Houston Prk Dr # 300,Houston,TX,(713) 895-2300,Turbines-Manufacturers,Turbines-Manufacturers,,"$9,249,000 ",Houston,10203 Sam Houston Prk Dr,,
Spring Park Dentistry,Brandon B,Kang,19380 Interstate 45 # 110,Spring,TX,(281) 353-2442,Dentists,Dentists,,"$551,000 ",Houston,19380 Interstate 45,30.1047574,-95.4351502
Star Barber Shop,Young,Kang,1017 Pat Booker Rd,Universal City,TX,(210) 566-8110,Barbers,Barbers,,"$70,000 ",San Antonio,1017 Pat Booker Rd,29.549701,-98.295397
Statera Physical Therapy PLLC,Younmyung,Kang,13711 Westheimer Rd # J-A,Houston,TX,(281) 493-4718,Physical Therapists,Physical Therapists,,$0 ,Houston,13711 Westheimer Rd,29.735905055555556,-95.6322718888889
Sushi Kyoto,Chun,Kang,6429 Hillcrest Ave,Dallas,TX,(214) 520-9991,Restaurants,Restaurants,,"$309,000 ",Dallas F Wth,6429 Hillcrest Ave,32.84433957142857,-96.78711628571429
Sushiya,Lee,Kang,1306 Elm St,Dallas,TX,(214) 744-9600,Restaurants,Restaurants,,"$617,000 ",Dallas F Wth,1306 Elm St,32.95088563265306,-96.90768426530613
Tab N Shift LLC,Jieun M,Kang,9332 Meyrick Park Trl,Austin,TX,Not Available,Nonclassified Establishments,Nonclassified Establishments,,$0 ,Austin,9332 Meyrick Park Trl,30.506006,-97.7459024779287
Texas German Shepherd LLC,Xiaofeng,Kang,1170 W Corporate Dr # 204,Arlington,TX,Not Available,Dog Breeders,Dog Breeders,,"$95,000 ",Dallas F Wth,1170 W Corporate Dr,,
TIAA,Daniel,Kang,6850 Austin Ctr Blvd # 230,Austin,TX,(512) 795-7000,Financial Advisory Services,Financial Advisory Services,Financial Planning Consultants,"$5,150,000 ",Austin,6850 Austin Ctr Blvd,30.351789,-97.75277166653805
Tilden Star LLC,Hsiang Y,Kang,3505 Enclave Trl,Plano,TX,Not Available,Nonclassified Establishments,Nonclassified Establishments,,$0 ,Dallas F Wth,3505 Enclave Trl,33.04573912244898,-96.67271036734694
Times,Sung,Kang,4702 Kostoryz Rd,Corpus Christi,TX,(361) 854-2572,Convenience Stores,Convenience Stores,Service Stations-Gasoline & Oil,"$178,000 ",Corpus Christ,4702 Kostoryz Rd,27.734826299216046,-97.40895453551089
Tobiasko Inc,Sangmin,Kang,2625 Old Denton Rd # 413,Carrollton,TX,Not Available,Nonclassified Establishments,Nonclassified Establishments,,$0 ,Dallas F Wth,2625 Old Denton Rd,32.9870341,-96.9113886
Tokyo Lamesa Inc,Xiao F,Kang,8217 University Ave,Lubbock,TX,Not Available,Nonclassified Establishments,Nonclassified Establishments,,$0 ,Lubbock,8217 University Ave,33.5181965,-101.8698464
Tootsie's Cafe,Henry,Kang,400 N Saint Paul St # 120,Dallas,TX,(214) 953-0059,Restaurants,Restaurants,,"$62,000 ",Dallas F Wth,400 N Saint Paul St,32.783994,-96.797576
Transsolutions,Kootak,Kang,14600 Trinity Blvd # 200,Fort Worth,TX,(817) 359-2950,Transportation Consultants,Transportation Consultants,Trucking Consultants,"$5,162,000 ",Dallas F Wth,14600 Trinity Blvd,32.82144185,-97.05014047763777
Trend Micro Inc,Phil,Kang,11305 Alterra Pkwy,Austin,TX,(512) 582-1359,Security Systs-Communications/Computer,Security Systs-Communications/Computer,,$0 ,Austin,11305 Alterra Pkwy,30.398126849999997,-97.72023768423318
Triarc Solutions,Xinyun,Kang,5601 Navigation Blvd,Houston,TX,(832) 301-3932,Trade Clearing Exchanges,Trade Clearing Exchanges,,"$1,021,000 ",Houston,5601 Navigation Blvd,29.74817759482651,-95.31757817976853
Triarc Solutions LLC,Xinyun,Kang,1200 Smith St # 1600,Houston,TX,Not Available,Information Technology Services,Information Technology Services,,"$1,435,000 ",Houston,1200 Smith St,29.7571547,-95.371054
Uni Sushi,Brandon,Kang,1410 K Ave # 1109b,Plano,TX,(972) 695-2229,Restaurants,Restaurants,,"$474,000 ",Dallas F Wth,1410 K Ave,33.0190088,-96.6987045
United Central Bank,Sokki,Kang,2592 Royal Ln,Dallas,TX,(972) 620-1927,Banks,Banks,,"$7,551,000 ",Dallas F Wth,2592 Royal Ln,32.89559862990693,-96.89183938042808
University Of TX Sw Med Ctr,Sun Jun,Kang,5323 Harry Hines Blvd # 7200,Dallas,TX,(214) 648-3119,Physicians & Surgeons,Physicians & Surgeons,,"$241,000 ",Dallas F Wth,5323 Harry Hines Blvd,32.811528249999995,-96.84149851063599
Wheatland Dental Care,Min Sung,Kang,3940 W Wheatland Rd,Dallas,TX,(972) 227-6453,Dentists,Dentists,,"$597,000 ",Dallas F Wth,3940 W Wheatland Rd,32.647122550000006,-96.88374360024912
William P Clements Jr Univ HSP,Minji,Kang,6201 Harry Hines Blvd,Dallas,TX,(214) 633-5555,Physicians & Surgeons,Physicians & Surgeons,,$0 ,Dallas F Wth,6201 Harry Hines Blvd,32.8199841,-96.84941992144059
Wingate By Wyndham Humble,Paul,Kang,7114 Will Clayton Pkwy,Humble,TX,(281) 713-4265,Hotels & Motels,Hotels & Motels,,"$1,076,000 ",Houston,7114 Will Clayton Pkwy,29.9819531,-95.28041406359665
Wok On Fire,C G,Kang,9901 Brodie Ln # 170,Austin,TX,(512) 291-8886,Restaurants,Restaurants,,"$474,000 ",Austin,9901 Brodie Ln,30.185202,-97.84768
Woori Home Care,Young S,Kang,11500 N Stemmons Fwy # 126,Dallas,TX,(972) 982-2228,Health Services,Health Services,Home Health Service,$0 ,Dallas F Wth,11500 N Stemmons Fwy,32.9013074,-96.89703125844488
Worldniz,Kwonil,Kang,1360 Amistad Dr,Prosper,TX,Not Available,Nonclassified Establishments,Nonclassified Establishments,,$0 ,Dallas F Wth,1360 Amistad Dr,33.22226,-96.778328
Zeeo Inc,Zion,Kang,11536 Harry Hines Blvd # 214,Dallas,TX,Not Available,Nonclassified Establishments,Nonclassified Establishments,,$0 ,Dallas F Wth,11536 Harry Hines Blvd,32.901436,-96.89334422727272
Zte USA Inc,Chris,Kang,2425 N Central Expy # 323,Richardson,TX,(972) 671-8885,Communications,Communications,,"$35,412,000 ",Dallas F Wth,2425 N Central Expy,32.98451325,-96.7132029259636
Cute Crush Co,Crystal,Kyun,4552 Winding Wood Trl,Plano,TX,Not Available,Nonclassified Establishments,Nonclassified Establishments,,$0 ,Dallas F Wth,4552 Winding Wood Trl,33.084494,-96.78604
Accenture Limited,Joel,Go,5205 N O Connor Blvd # 1400,Irving,TX,(469) 665-0000,Data Processing Service,Data Processing Service,Business Management Consultants,$0 ,Dallas F Wth,5205 N O Connor Blvd,32.8705755,-96.93960615
Brazos Kidney Disease Ctr,Robert J,Go,2329 N 39th St,Waco,TX,(254) 752-5503,Physicians & Surgeons,Physicians & Surgeons,,"$505,000 ",Waco,2329 N 39th St,31.551147571428572,-97.18424885714285
Bridgewood Labs LLC,Jeanette,Go,407 Hackberry Dr,Fate,TX,Not Available,Laboratories,Laboratories,Federal Government Contractors,$0 ,Dallas F Wth,407 Hackberry Dr,32.94686249269788,-96.38427689194403
Covenant Diagnostic Imaging,Greta T,Go,3525 19th St,Lubbock,TX,(806) 792-4444,Diagnostic Imaging Centers,Diagnostic Imaging Centers,Physicians & Surgeons,"$5,003,000 ",Lubbock,3525 19th St,33.57773613162713,-101.89032539394529
Exxonmobil Chemical Co,Tony,Go,3525 Decker Dr,Baytown,TX,(281) 834-6161,Chemicals (Whls),Chemicals (Whls),,"$450,720,000 ",Houston,3525 Decker Dr,29.763628053691278,-95.00576079530201
Family Medicine Clinic,David Y,Go,2401 Walker Place Blvd,Copperas Cove,TX,(254) 547-7777,Physicians & Surgeons,Physicians & Surgeons,,"$456,000 ",Killeen-Tmpl,2401 Walker Place Blvd,31.1009948,-97.9174042
Fresenius Medical Care,Robert J,Go,1507 Hillview Dr,Hillsboro,TX,(254) 582-5577,Physicians & Surgeons,Physicians & Surgeons,,"$364,000 ",,1507 Hillview Dr,32.01093742185725,-97.09446304699927
Furama Group LLC,Wa,Go,9896 Bellaire Blvd # D,Houston,TX,Not Available,Nonclassified Establishments,Nonclassified Establishments,,$0 ,Houston,9896 Bellaire Blvd,29.7063997,-95.553997
Gamma Construction Co,Mike,Go,2808 Joanel St,Houston,TX,(713) 963-0086,General Contractors,General Contractors,Building Contractors,"$21,121,000 ",Houston,2808 Joanel St,29.739518414141415,-95.43444598989899
Global Polymer,Philip,Go,9100 Southwest Fwy,Houston,TX,(713) 266-6662,Plastics-Raw Mtrls/Powder/Resin-Mfrs,Plastics-Raw Mtrls/Powder/Resin-Mfrs,Plastics & Plastic Products (Mfrs),"$2,193,000 ",Houston,9100 Southwest Fwy,29.684499,-95.535276
Go Giezle Degamo,Giezle D,Go,4401 Garth Rd,Baytown,TX,(346) 233-7771,Nurses-Practitioners,Nurses-Practitioners,,$0 ,Houston,4401 Garth Rd,29.7678206,-94.98014881097262
Go Ryan Marte MD,Ryan M,Go,512 Victoria Ln # 13,Harlingen,TX,(956) 296-3821,Physicians & Surgeons,Physicians & Surgeons,,$0 ,Brownsville,512 Victoria Ln,26.158817524561623,-97.67424431834318
"Go, Aundshela",Aundshela,Go,1505 Harroun Ave,Mckinney,TX,(817) 313-5597,Nurses-Practitioners,Nurses-Practitioners,,$0 ,Dallas F Wth,1505 Harroun Ave,33.214483897959184,-96.62747971428571
"Go, Gabriella MD",Gabriella,Go,5502 S Mccoll Rd,Edinburg,TX,(956) 362-2229,Physicians & Surgeons,Physicians & Surgeons,,$0 ,Mc Allen,5502 S Mccoll Rd,26.252733550000002,-98.20292527675439
"Go, Lan H",Lan H,Go,1938 W Gray St,Houston,TX,(713) 521-2317,Pharmacists,Pharmacists,,"$74,000 ",Houston,1938 W Gray St,29.7540874,-95.40547689074049
Helen's Gifts & Beauty Supply,Il Sim,Go,2226 S Market St,Brenham,TX,(979) 836-0524,Cosmetics & Perfumes-Retail,Cosmetics & Perfumes-Retail,Beauty Salons-Equipment & Supplies (Whls),"$99,000 ",Brenham,2226 S Market St,30.149988531465848,-96.38782412400018
HF Sinclair Corp,Tim,Go,2828 N Harwood St # 1300,Dallas,TX,(214) 871-3555,Oil Refiners (Mfrs),Oil Refiners (Mfrs),,$0 ,Dallas F Wth,2828 N Harwood St,32.7941763,-96.8082694
Hollyfrontier Corp,Timothy,Go,2828 N Harwood St # 1300,Dallas,TX,(214) 871-3555,Oil Refiners (Mfrs),Oil Refiners (Mfrs),Refined Petroleum Pipelines,$0 ,Dallas F Wth,2828 N Harwood St,32.7941763,-96.8082694
Midland Realty Group,Helen,Go,9896 Bellaire Blvd # D,Houston,TX,Not Available,Real Estate,Real Estate,,"$435,000 ",Houston,9896 Bellaire Blvd,29.7063997,-95.553997
Panda Express,Jay,Go,9319 Highway 6 S # A,Houston,TX,(281) 988-9929,Restaurants,Restaurants,Foods-Carry Out,"$592,000 ",Houston,9319 Highway 6 S,29.677588999999998,-95.64271524774774
Panda Express,Jason,Go,546 S Mason Rd,Katy,TX,(281) 395-1144,Restaurants,Restaurants,Foods-Carry Out,"$892,000 ",Houston,546 S Mason Rd,29.77504895,-95.7522433248725
Philippine Trinity Baptist,James,Go,4808 Sugar Grove Blvd,Stafford,TX,(281) 313-4373,Churches,Churches,,$0 ,Houston,4808 Sugar Grove Blvd,29.643310136175565,-95.5834619403768
Spine & Sports Ctr,Charito C,Go,2100 West Loop S # 150,Houston,TX,(713) 590-2700,Physicians & Surgeons,Physicians & Surgeons,,"$659,000 ",Houston,2100 West Loop S,29.7459652,-95.457998
Texas Diabetes Institute,Jon Avery T,Go,701 S Zarzamora St,San Antonio,TX,(210) 358-7000,Physicians & Surgeons,Physicians & Surgeons,,"$620,000 ",San Antonio,701 S Zarzamora St,29.421968399999997,-98.52887232792264
Aldraqo Asset Management LLC,Yongha,Ko,8319 Vaulted Pine Dr,Humble,TX,Not Available,Asset Management,Asset Management,,"$1,768,000 ",Houston,8319 Vaulted Pine Dr,,
Bales KAMI PA,Kami,Ko,2900 N Interstate 35 # 300,Denton,TX,(940) 323-3480,Nurses-Practitioners,Nurses-Practitioners,Physicians Assistants,"$61,000 ",Dallas F Wth,2900 N Interstate 35,33.2132429,-97.1663069
Beauty Mart,Kun,Ko,1014 W University Dr,Denton,TX,(940) 566-1680,Beauty Salons-Equipment & Supplies (Whls),Beauty Salons-Equipment & Supplies (Whls),Cosmetics & Perfumes-Retail,"$1,539,000 ",Dallas F Wth,1014 W University Dr,33.2307043,-97.1427456
Black House LLC,Hana,Ko,2036 Commerce St,Dallas,TX,Not Available,Nonclassified Establishments,Nonclassified Establishments,,$0 ,Dallas F Wth,2036 Commerce St,32.90869570833333,-96.6000088888889
China Ko,Chi,Ko,5310 E Sam Hou Pkwy N # A,Houston,TX,(281) 452-3120,Restaurants,Restaurants,,"$446,000 ",Houston,5310 E Sam Hou Pkwy N,,
City Pharmacy,Hyonbo,Ko,1610 Main St,Junction,TX,(325) 446-2511,Pharmacies,Pharmacies,Electronic Equipment & Supplies-Retail,"$2,176,000 ",,1610 Main St,30.490761854036634,-99.77664913211134
Dabo Trading,Louis,Ko,2207 Royal Ln,Dallas,TX,(469) 930-0996,Trading Posts,Trading Posts,Exporters (Whls),"$3,381,000 ",Dallas F Wth,2207 Royal Ln,32.895771115737354,-96.90342339057625
Daoom LLC,Julianna T,Ko,608 Park Bend Dr,Richardson,TX,Not Available,Nonclassified Establishments,Nonclassified Establishments,,$0 ,Dallas F Wth,608 Park Bend Dr,32.933060591410516,-96.72375398271399
Din Ho Chinese BBQ,Stephanie,Ko,8557 Research Blvd # 116,Austin,TX,(512) 832-8788,Restaurants,Restaurants,,"$534,000 ",Austin,8557 Research Blvd,30.36143825,-97.7151935990064
Distinctive Life Cremations,Kyle,Ko,1617 N Central Expy,Plano,TX,(972) 238-7011,Crematories,Crematories,Funeral Directors,"$795,000 ",Dallas F Wth,1617 N Central Expy,33.02185910502488,-96.70931605368182
Duratech Supplies Inc,Michael,Ko,11730 S Sam Houston Pkwy W,Houston,TX,(713) 922-1922,Software/Application/Platform Publishing,Software/Application/Platform Publishing,,"$846,000 ",Houston,11730 S Sam Houston Pkwy W,29.5961729,-95.4486389
Elite Cleaners,Soon,Ko,8325 Broadway St,Pearland,TX,(281) 485-5110,Cleaners,Cleaners,Janitor Service,"$57,000 ",Houston,8325 Broadway St,29.5551835,-95.4154555
Elite Lube & Brake Ctr,Young,Ko,10326 Blackhawk Blvd,Houston,TX,(281) 485-6118,Automobile Repairing & Service,Automobile Repairing & Service,Automobile Lubrication Service,"$470,000 ",Houston,10326 Blackhawk Blvd,29.6010296,-95.2476801
Emmie H Ko MD PA,Emmie H,Ko,350 N Texas Ave # A1,Webster,TX,(281) 338-1024,Physicians & Surgeons,Physicians & Surgeons,,"$659,000 ",Houston,350 N Texas Ave,29.535334750134364,-95.12608096790001
Everrich Industries Inc,James,Ko,1050 Venture Ct # 110,Carrollton,TX,(972) 478-5800,Manufacturers,Manufacturers,,"$552,000 ",Dallas F Wth,1050 Venture Ct,32.955177,-96.858843
Familia Dental,Bona,Ko,206 NE 7th Ave,Amarillo,TX,(806) 318-3908,Dentists,Dentists,,"$717,000 ",Amarillo,206 NE 7th Ave,35.21980567346939,-101.83311781632653
Firehouse Subs,Hanna,Ko,231 E Fm 544 # 701,Murphy,TX,(972) 424-9000,Restaurants,Restaurants,Foods-Carry Out,"$887,000 ",Dallas F Wth,231 E Fm 544,33.0116308,-96.6221848
Firehouse Subs,Steve,Ko,2304 Coit Rd # 680,Plano,TX,(972) 612-0055,Restaurants,Restaurants,Foods-Carry Out,"$1,006,000 ",Dallas F Wth,2304 Coit Rd,33.030615181208056,-96.77026323154362
First Point Group Inc,Ted,Ko,5800 Granite Pkwy # 280,Plano,TX,(214) 436-8950,Office Buildings & Parks,Office Buildings & Parks,,"$415,000 ",Dallas F Wth,5800 Granite Pkwy,33.0876097,-96.82012459506407
Gen Korean BBQ House,Paul,Ko,2540 Old Denton Rd # 134,Carrollton,TX,(323) 846-8387,Restaurants,Restaurants,Foods-Carry Out,"$432,000 ",Dallas F Wth,2540 Old Denton Rd,32.9799184,-96.90949055
Gensler,Jaechang,Ko,1011 S Congress Ave # 1-200,Austin,TX,(512) 867-8100,Architects,Architects,Interior Designers-Contract,"$18,211,000 ",Austin,1011 S Congress Ave,30.254499979865773,-97.74775601342282
Golden Bank,Jenny,Ko,9315 Bellaire Blvd,Houston,TX,(713) 777-3838,Banks,Banks,Federal Government Contractors,$0 ,Houston,9315 Bellaire Blvd,29.704816039215686,-95.54751937254902
H K Consulting Group LLC,Hana,Ko,3609 Lofty Pines Ln,Flower Mound,TX,Not Available,Consultants-Business NEC,Consultants-Business NEC,,"$412,000 ",Dallas F Wth,3609 Lofty Pines Ln,33.03522177091041,-97.05164709680894
H&R Block,Peter,Ko,1967 W T C Jester Blvd,Houston,TX,(713) 880-3555,Tax Return Preparation & Filing,Tax Return Preparation & Filing,Financial Advisory Services,"$423,000 ",Houston,1967 W T C Jester Blvd,29.8020458,-95.4329235
Happy Social,H C,Ko,2001 Robert Browning St,Austin,TX,Not Available,Nonclassified Establishments,Nonclassified Establishments,,$0 ,Austin,2001 Robert Browning St,30.298486,-97.702706
Karl Storz Endoscopy-America,Jim,Ko,13803 N Promenade Blvd,Stafford,TX,(281) 566-4100,Hospital Equipment & Supplies-Mfrs,Hospital Equipment & Supplies-Mfrs,Physicians & Surgeons,"$36,019,000 ",Houston,13803 N Promenade Blvd,29.62328875568954,-95.56948879822376
KATY Kids Dentist,Kathy W,Ko,830 S Mason Rd,Katy,TX,(281) 894-2808,Dentists,Dentists,,"$551,000 ",Houston,830 S Mason Rd,,
KC Lam Re/Max Southwest Pro,Bing,Ko,14905 Southwest Fwy,Sugar Land,TX,(281) 265-2526,Real Estate,Real Estate,,"$3,890,000 ",Houston,14905 Southwest Fwy,29.5980359,-95.6225979
Kim International,Paul,Ko,14840 Landmark Blvd # 200,Dallas,TX,(972) 385-7555,Jewelry-Manufacturers,Jewelry-Manufacturers,Jewelers-Wholesale,"$3,201,000 ",Dallas F Wth,14840 Landmark Blvd,32.94886384681098,-96.82817220739813
Ko Amy DO,Amy,Ko,1 Baylor Plz,Houston,TX,(210) 704-3910,Physicians & Surgeons,Physicians & Surgeons,,$0 ,Houston,1 Baylor Plz,29.7104775,-95.39580027495086
Ko Heidi Chwan DO,Heidi C,Ko,2727 W Holcombe Blvd,Houston,TX,(713) 442-0000,Physicians & Surgeons,Physicians & Surgeons,,$0 ,Houston,2727 W Holcombe Blvd,29.70519625,-95.42161287648554
Ko Heidi Chwan DO,Heidi C,Ko,7979 Wurzbach Rd,San Antonio,TX,(210) 450-1143,Physicians & Surgeons,Physicians & Surgeons,,$0 ,San Antonio,7979 Wurzbach Rd,29.5125879,-98.58023973410937
Ko Mi Kyung MD,Mi K,Ko,2727 W Holcombe Blvd,Houston,TX,(713) 442-0000,Physicians & Surgeons,Physicians & Surgeons,,"$220,000 ",Houston,2727 W Holcombe Blvd,29.70519625,-95.42161287648554
Ko Suk Moon MD,Suk M,Ko,1500 S Main St,Fort Worth,TX,(817) 702-1173,Physicians & Surgeons,Physicians & Surgeons,,$0 ,Dallas F Wth,1500 S Main St,32.7270451,-97.32796714552929
Ko Tina DC,Tina,Ko,6150 Eldorado Pkwy # 202,Mckinney,TX,(972) 694-6829,Chiropractors DC,Chiropractors DC,,$0 ,Dallas F Wth,6150 Eldorado Pkwy,33.1741421,-96.7093746
"Ko, Betty",Betty,Ko,6629 Wooldridge Rd,Corpus Christi,TX,(361) 986-8263,Counselors,Counselors,,$0 ,Corpus Christ,6629 Wooldridge Rd,27.6801205,-97.3603865152826
"Ko, Christy",Christy,Ko,7001 Wyoming Springs Dr,Round Rock,TX,(512) 716-0757,Pharmacists,Pharmacists,,$0 ,Austin,7001 Wyoming Springs Dr,30.507595,-97.716124
"Ko, David MD",David,Ko,2817 S Mayhill Rd # 115,Denton,TX,(469) 862-1000,Physicians & Surgeons,Physicians & Surgeons,,"$597,000 ",Dallas F Wth,2817 S Mayhill Rd,33.1973705,-97.0848651
"Ko, David MD",David,Ko,6053 Main St # 130,The Colony,TX,(972) 625-7000,Physicians & Surgeons,Physicians & Surgeons,,"$597,000 ",Dallas F Wth,6053 Main St,33.09019932757971,-96.89259110855184
"Ko, Heekyung",Heekyung,Ko,3624 N Hills Dr # A201,Austin,TX,(512) 858-8412,Counselors,Counselors,,"$98,000 ",Austin,3624 N Hills Dr,30.352744,-97.757179
"Ko, Hyejon OD",Hyejon,Ko,6121 W Park Blvd # D120,Plano,TX,Not Available,Optometrists OD,Optometrists OD,,"$384,000 ",Dallas F Wth,6121 W Park Blvd,33.03125015,-96.83234460117973
"Ko, James Sang MD",James Sang,Ko,3601 4th St,Lubbock,TX,(806) 743-1000,Physicians & Surgeons,Physicians & Surgeons,,"$794,000 ",Lubbock,3601 4th St,33.5894699,-101.8920203
"Ko, Justin Do",Justin,Ko,1102 Barclay St,San Antonio,TX,(210) 233-7000,Physicians & Surgeons,Physicians & Surgeons,,"$620,000 ",San Antonio,1102 Barclay St,29.410069326530614,-98.54292769387756
"Ko, Kate",Kate,Ko,4555 Lake Shore Dr # B,Waco,TX,(254) 214-2334,Counselors,Counselors,Counselors-Licensed Professional,"$32,000 ",Waco,4555 Lake Shore Dr,31.56064855555188,-97.19643095763826
"Ko, Kevin MD",Kevin,Ko,2604 Saint Michael Dr # 340,Texarkana,TX,(903) 614-5640,Physicians & Surgeons,Physicians & Surgeons,,"$895,000 ",Texarkana,2604 Saint Michael Dr,33.46200302172932,-94.07615784784726
"Ko, Winford MD",Winford,Ko,5323 Harry Hines Blvd,Dallas,TX,(214) 590-8000,Physicians & Surgeons,Physicians & Surgeons,,"$723,000 ",Dallas F Wth,5323 Harry Hines Blvd,32.811528249999995,-96.84149851063599
"Ko, Yo Han",Yo Han,Ko,6200 Lbj Fwy # 185,Dallas,TX,(214) 691-3210,Acupuncture,Acupuncture,,"$66,000 ",Dallas F Wth,6200 Lbj Fwy,32.9254892,-96.8114564
"Ko, Youngkwang",Youngkwang,Ko,36065 Santa Fe Ave,Fort Hood,TX,(254) 553-5319,Physicians Assistants,Physicians Assistants,,$0 ,Killeen-Tmpl,36065 Santa Fe Ave,31.127585099999997,-97.77679731470465
Kreate & Wear,Won,Ko,2531 Royal Ln,Dallas,TX,(972) 241-1128,Clothing-Retail,Clothing-Retail,,"$511,000 ",Dallas F Wth,2531 Royal Ln,32.89585788266545,-96.89447167071523
Lake Houston Marina,Henry,Ko,10611 Fm 1960,Huffman,TX,(281) 324-1264,Boat Dealers Sales & Service,Boat Dealers Sales & Service,,"$3,488,000 ",Houston,10611 Fm 1960,30.042560775510204,-95.04209697959183
Lipsky & Assoc,Daniel,Ko,1400 Santa Fe Dr # 200,Weatherford,TX,(817) 594-5000,Real Estate Loans,Real Estate Loans,,"$2,080,000 ",Dallas F Wth,1400 Santa Fe Dr,32.742183,-97.782262
Lyndon Baines Johnson Gen Hosp,Tien C,Ko,5656 Kelley St # 30s62008,Houston,TX,(713) 566-5098,Physicians & Surgeons,Physicians & Surgeons,,"$659,000 ",Houston,5656 Kelley St,29.811503199999997,-95.3130452882651
M & M Liquor-2,Ted,Ko,3711 Stone Rd,Kilgore,TX,(903) 984-5852,Liquors-Retail,Liquors-Retail,,"$1,304,000 ",Longview,3711 Stone Rd,32.38182091804243,-94.83381508486919
Mcfoison LLC,Heidi,Ko,10161 Harwin Dr,Houston,TX,(713) 778-6000,Senior Citizens Service,Senior Citizens Service,Clinics,"$210,000 ",Houston,10161 Harwin Dr,29.718171,-95.543313
Media Tek USA Inc,Uming,Ko,5914 Courtyard Dr # 400,Austin,TX,(512) 687-1900,Multimedia (Mfrs),Multimedia (Mfrs),,"$1,533,000 ",Austin,5914 Courtyard Dr,30.356763803677683,-97.79062953681955
Microland Electronics Corp,Eric,Ko,1303 E Arapaho Rd # 150b,Richardson,TX,(972) 484-7515,Electronic Equipment & Supplies-Retail,Electronic Equipment & Supplies-Retail,,"$4,511,000 ",Dallas F Wth,1303 E Arapaho Rd,32.96049816666667,-96.70286250000001
Mighty Chick,Jenny,Ko,8247 Rufe Snow Dr # 500,Watauga,TX,(817) 720-9573,Restaurants,Restaurants,Foods-Carry Out,$0 ,Dallas F Wth,8247 Rufe Snow Dr,32.89149314471374,-97.23866512715139
MK Jeans Corp,Young,Ko,517 S El Paso St,El Paso,TX,(915) 532-8580,Men's Clothing & Furnishings-Retail,Men's Clothing & Furnishings-Retail,,"$492,000 ",El Paso,517 S El Paso St,31.754035560764788,-106.48792058663629
Nan Ya Plastics Corp,Sherman,Ko,201 Formosa Dr,Point Comfort,TX,(361) 987-7206,Plastics-Manufacturers,Plastics-Manufacturers,Industrial Organic Chemicals NEC (Mfrs),"$10,302,000 ",Port Lavaca,201 Formosa Dr,,
North TX Diabetes,Jane Y,Ko,4100 W 15th St # 202,Plano,TX,(972) 943-5914,Physicians & Surgeons,Physicians & Surgeons,,"$236,000 ",Dallas F Wth,4100 W 15th St,33.017624,-96.770766
Nova-BIC LLC,Uming,Ko,12402 Lakeshore Rdg,Houston,TX,Not Available,Nonclassified Establishments,Nonclassified Establishments,,$0 ,Houston,12402 Lakeshore Rdg,,
P K S D LLC,Euen S,Ko,6609 Ellis Rd,Fort Worth,TX,Not Available,Nonclassified Establishments,Nonclassified Establishments,,$0 ,Dallas F Wth,6609 Ellis Rd,32.75048805050505,-97.21601680808081
Ramey Ko Legal Svc PLLC,Ramey,Ko,8310 N Capital Of Texas Hwy,Austin,TX,Not Available,Attorneys,Attorneys,,"$938,000 ",Austin,8310 N Capital Of Texas Hwy,30.383288224489796,-97.77050014285714
Reborn Construction LLC,Myung,Ko,2625 Old Denton Rd # 576,Carrollton,TX,Not Available,Construction Companies,Construction Companies,,"$2,284,000 ",Dallas F Wth,2625 Old Denton Rd,32.9870341,-96.9113886
Rightnow Media,Patrick,Ko,6300 Henneman Way,Mckinney,TX,(972) 560-4000,Broadcasting Companies,Broadcasting Companies,Media Buying Service,$0 ,Dallas F Wth,6300 Henneman Way,33.1394175,-96.6991312
Rocky's Subs,Peter,Ko,210 W Greens Rd # G,Houston,TX,(281) 873-0236,Restaurants,Restaurants,,"$255,000 ",Houston,210 W Greens Rd,29.94908874509804,-95.42048450980393
Sammi Wholesaler,William,Ko,11363 Denton Dr # 301,Dallas,TX,(469) 522-1516,Jewelers-Wholesale,Jewelers-Wholesale,Jewelry-Manufacturers,"$4,638,000 ",Dallas F Wth,11363 Denton Dr,32.89658625,-96.88944821718749
Samsung Austin R & D Ctr,Sung,Ko,3900 N Cp Of TX Hwy # 300,Austin,TX,(512) 425-2500,Designers,Designers,Research Service,"$307,225,000 ",Austin,3900 N Cp Of TX Hwy,,
Sesame House,Tahoy,Ko,2195 W Green Oaks Blvd,Arlington,TX,(817) 446-1119,Restaurants,Restaurants,,"$224,000 ",Dallas F Wth,2195 W Green Oaks Blvd,32.70922113136555,-97.1905980854441
Sharon Ko Inc,Youngrai,Ko,2701 Old Denton Rd # 260,Carrollton,TX,Not Available,Nonclassified Establishments,Nonclassified Establishments,,$0 ,Dallas F Wth,2701 Old Denton Rd,32.9881463,-96.9103907
Sharon's Cleaners,Kyung,Ko,11401 Elam Rd # 117,Mesquite,TX,(972) 557-3828,Cleaners,Cleaners,,"$63,000 ",Dallas F Wth,11401 Elam Rd,,
Shenandoah Apartments,Eric,Ko,939 Allegheny Ct # A,Richardson,TX,(972) 231-1767,Apartments,Apartments,,"$1,309,000 ",Dallas F Wth,939 Allegheny Ct,,
Silicon Integration Initiative,Seungbum,Ko,12335 Hymeadow Dr # 450,Austin,TX,(512) 342-2244,Non-Profit Organizations,Non-Profit Organizations,,$0 ,Austin,12335 Hymeadow Dr,30.4551885,-97.79605224590165
South Shore Medical Ctr,Kathleen H,Ko,201 Enterprise Ave # 900,League City,TX,(281) 334-2826,Physicians & Surgeons,Physicians & Surgeons,,"$466,000 ",Houston,201 Enterprise Ave,29.544575601010102,-95.05974664141415
Southern Maid Donuts,Hyeyong,Ko,656 SW Wilshire Blvd,Burleson,TX,(817) 426-3333,Doughnuts,Doughnuts,,"$132,000 ",Dallas F Wth,656 SW Wilshire Blvd,32.53530506009672,-97.33544878532393
Starbucks,Leta,Ko,2051 Gattis School Rd # 400,Round Rock,TX,(512) 246-0390,Coffee Shops,Coffee Shops,Coffee & Tea,"$545,000 ",Austin,2051 Gattis School Rd,30.4949547,-97.65405965161366
Steve Ko Art Studio LLC,Hanna,Ko,2016 Hemison Ln,Lewisville,TX,Not Available,Art Instruction & Schools,Art Instruction & Schools,,$0 ,Dallas F Wth,2016 Hemison Ln,33.0428172,-96.921187
Sticky Rice 2 LLC,Oudomvilay,Ko,5308 Middleton Dr,Parker,TX,Not Available,Restaurants,Restaurants,,"$474,000 ",Dallas F Wth,5308 Middleton Dr,33.07440520638391,-96.60610000092177
Stout Risius Ross,Darlene,Ko,1000 Main St # 3200,Houston,TX,(713) 454-7730,Financial Advisory Services,Financial Advisory Services,,"$4,950,000 ",Houston,1000 Main St,29.757002049999997,-95.36556331137388
Sushi Nikko,John,Ko,6039 Precinct Line Rd # 180,North Richland Hills,TX,(817) 428-4145,Restaurants,Restaurants,,"$279,000 ",Dallas F Wth,6039 Precinct Line Rd,32.85642751923077,-97.1860368923077
Tin Technologies Inc,Tin K,Ko,2013 Portobello Rd,Leander,TX,Not Available,Nonclassified Establishments,Nonclassified Establishments,,$0 ,Austin,2013 Portobello Rd,30.534193656661078,-97.90299982749184
Town & Country Cleaners,Jae S,Ko,2070 W Spring Creek Pkwy # 346,Plano,TX,(972) 517-5945,Cleaners,Cleaners,,"$279,000 ",Dallas F Wth,2070 W Spring Creek Pkwy,33.05864167448257,-96.73250163198827
University Of TX Medical Br,Tien C,Ko,6410 Fannin St # 1400,Houston,TX,(409) 772-1011,Physicians & Surgeons,Physicians & Surgeons,,"$220,000 ",Houston,6410 Fannin St,29.714232833333334,-95.39741216666667
UT Physicians,Mi Kyung,Ko,18960 N Memorial Dr,Humble,TX,(281) 540-7905,Physicians & Surgeons,Physicians & Surgeons,,"$659,000 ",Houston,18960 N Memorial Dr,29.996777058109522,-95.27448089014925
Willow Bend Vision Ctr,Hyejon,Ko,6121 W Park Blvd # D120,Plano,TX,(972) 202-5632,Optometrists OD,Optometrists OD,,"$384,000 ",Dallas F Wth,6121 W Park Blvd,33.03125015,-96.83234460117973
Winco International Inc,Peter,Ko,7111 Perimeter Park Dr # 312,Houston,TX,(713) 672-8867,Non-Profit Organizations,Non-Profit Organizations,,$0 ,Houston,7111 Perimeter Park Dr,29.870752374133186,-95.55837923999046
Winco International Inc,Peter,Ko,9126 Eaglecove Dr,Houston,TX,(713) 672-8867,Plastics-Scrap (Whls),Plastics-Scrap (Whls),,"$4,372,000 ",Houston,9126 Eaglecove Dr,,
423 Century Square LLC,Chong K,Koh,125 Richardson Ct # 100,Allen,TX,Not Available,Nonclassified Establishments,Nonclassified Establishments,,$0 ,Dallas F Wth,125 Richardson Ct,33.1016548,-96.64389382521853
Ace Tailor,Yong,Koh,3631 N Josey Ln,Carrollton,TX,(972) 939-0409,Alterations-Clothing,Alterations-Clothing,,"$129,000 ",Dallas F Wth,3631 N Josey Ln,33.00999864258021,-96.88673733537316
Allied Path Counseling Svc,Young Geon,Koh,625 W College St,Grapevine,TX,(469) 252-7090,Psychologists,Psychologists,,$0 ,Dallas F Wth,625 W College St,32.93545777551021,-97.08230526530612
Artistic Cleaners,Jong,Koh,2742 S Marsalis Ave,Dallas,TX,(214) 376-4555,Cleaners,Cleaners,,"$125,000 ",Dallas F Wth,2742 S Marsalis Ave,32.71348105,-96.81425163930655
Bright Castle Presbyterian Chr,Sanghyun,Koh,505 N 8th St,Killeen,TX,(254) 554-3332,Churches,Churches,,$0 ,Killeen-Tmpl,505 N 8th St,31.121736979591837,-97.72618155102042
Collabera,Carly,Koh,7670 Woodway Dr # 270,Houston,TX,(713) 808-9259,Information Technology Services,Information Technology Services,Automobile Repairing & Service,"$1,435,000 ",Houston,7670 Woodway Dr,29.752322679552552,-95.50305794656693
Currencies2go LLC,Joshua,Koh,1920 Mckinney Ave # 7,Dallas,TX,Not Available,Nonclassified Establishments,Nonclassified Establishments,,$0 ,Dallas F Wth,1920 Mckinney Ave,32.7901306,-96.8034427
Ekko LLC,Sook H,Koh,125 Richardson Ct # 100,Allen,TX,Not Available,Nonclassified Establishments,Nonclassified Establishments,,$0 ,Dallas F Wth,125 Richardson Ct,33.1016548,-96.64389382521853
Farmers Insurance,Danny,Koh,214 S Bell Ave # 1104,Denton,TX,(940) 514-1559,Insurance,Insurance,,"$320,000 ",Dallas F Wth,214 S Bell Ave,33.2130244,-97.1286427579337
Gom Ramen,Jong,Koh,1821 Hunter Dr,El Paso,TX,(915) 300-1110,Restaurants,Restaurants,,"$320,000 ",El Paso,1821 Hunter Dr,31.76303300616531,-106.36503074428275
Kigo,Daisy,Koh,2201 Lakeside Blvd,Richardson,TX,(855) 977-0843,Computers-System Designers & Consultants,Computers-System Designers & Consultants,,"$1,336,000 ",Dallas F Wth,2201 Lakeside Blvd,32.97998,-96.710239
KOH Seow Kee,Seow K,Koh,914 N Locust St,Denton,TX,(940) 458-8431,Counselors,Counselors,,$0 ,Dallas F Wth,914 N Locust St,33.22222771428571,-97.13218857142857
KOH Young Geon Psyd,Young G,Koh,1001 Cross Timbers Rd,Flower Mound,TX,(972) 966-1079,Psychologists,Psychologists,,$0 ,Dallas F Wth,1001 Cross Timbers Rd,33.0413838,-97.04186679228971
"KOH, Andrew Y MD",Andrew Y,Koh,5323 Harry Hines Blvd # Mc9063,Dallas,TX,(214) 456-2382,Physicians & Surgeons,Physicians & Surgeons,,"$723,000 ",Dallas F Wth,5323 Harry Hines Blvd,32.811528249999995,-96.84149851063599
"KOH, Ezra Yujin MD",Ezra Yujin,Koh,6410 Fannin St # 1400,Houston,TX,(832) 325-7125,Physicians & Surgeons,Physicians & Surgeons,,"$659,000 ",Houston,6410 Fannin St,29.714232833333334,-95.39741216666667
"KOH, Jason E DDS",Jason E,Koh,19235 Katy Fwy # 300b,Houston,TX,(281) 491-1624,Dentists,Dentists,,"$551,000 ",Houston,19235 Katy Fwy,29.7846978,-95.5277111
"KOH, Madeleine",Madeleine,Koh,4500 E S Hstn Pkwy S # 215,Pasadena,TX,(281) 487-2786,Physical Therapists,Physical Therapists,,"$74,000 ",Houston,4500 E S Hstn Pkwy S,,
"KOH, Shannon MD",Shannon,Koh,8230 Walnut Hill Ln # 308,Dallas,TX,(214) 691-8306,Physicians & Surgeons,Physicians & Surgeons,,"$723,000 ",Dallas F Wth,8230 Walnut Hill Ln,32.88340556694338,-96.76302109702318
Mark's Beer Barn,Mark,Koh,2535 W Prairie St,Denton,TX,(940) 891-1370,Convenience Stores,Convenience Stores,Beer & Ale-Retail,"$955,000 ",Dallas F Wth,2535 W Prairie St,33.210627,-97.1612445
Open Window Designs,Brenda,Koh,5829 W Sam Hou Pkwy N # 1205,Houston,TX,(713) 983-9198,Gift Shops,Gift Shops,Interior Decorators/Dsgnrs Supls (Whls),"$207,000 ",Houston,5829 W Sam Hou Pkwy N,,
Taste2life LLC,Eunok,Koh,4060 Blue Sage Dr,Prosper,TX,Not Available,Nonclassified Establishments,Nonclassified Establishments,,$0 ,Dallas F Wth,4060 Blue Sage Dr,33.23392692704338,-96.86753698039617
Texas Medical Ctr-Urology,Chester J,Koh,6701 Fannin St # 620,Houston,TX,(832) 822-3160,Physicians & Surgeons,Physicians & Surgeons,,"$659,000 ",Houston,6701 Fannin St,29.7069019,-95.40233496376148
Translink Shipping Inc,Wendy,Koh,12300 Ford Rd # 415,Dallas,TX,(214) 389-8889,Shipping Agents,Shipping Agents,,"$1,769,000 ",Dallas F Wth,12300 Ford Rd,32.913544900000005,-96.89038492413641
Vision Experts,Chee M,Koh,2389 S Collins St,Arlington,TX,(817) 277-8822,Optical Goods-Retail,Optical Goods-Retail,Contact Lenses,"$427,000 ",Dallas F Wth,2389 S Collins St,32.7334121,-97.097367
BGA Frisco LLC,Kok H,Goh,4101 W Spring Creek Pkwy # 200,Plano,TX,Not Available,Attorneys,Attorneys,,"$689,000 ",Dallas F Wth,4101 W Spring Creek Pkwy,33.056570063043196,-96.7726856692246
Caelus Energy LLC,Kenny,Goh,100 Crescent Ct # 1450,Dallas,TX,(214) 368-6050,Energy Management Systems & Products,Energy Management Systems & Products,,"$1,191,000 ",Dallas F Wth,100 Crescent Ct,32.793911550000004,-96.80331515625802
Capstone Insurance Agency,Caleb,Goh,7005 Chase Oaks Blvd # 110,Plano,TX,(972) 801-9775,Insurance,Insurance,,"$370,000 ",Dallas F Wth,7005 Chase Oaks Blvd,33.068883327538934,-96.69883409645041
Dr Ewe G Goh Pediatrics,Ewe,Goh,810 N Zang Blvd # 200,Dallas,TX,(214) 943-4331,Physicians & Surgeons,Physicians & Surgeons,,"$723,000 ",Dallas F Wth,810 N Zang Blvd,32.75257875,-96.82379959485047
Giftel Inc,Rosemary,Goh,3000 North Loop W,Houston,TX,(713) 613-0619,Gift Shops,Gift Shops,,"$413,000 ",Houston,3000 North Loop W,29.804741149999998,-95.44988439377389
Goflo Consulting Inc,Rocky,Goh,1616 Fountain View Dr # 509,Houston,TX,Not Available,Consultants-Business NEC,Consultants-Business NEC,,"$309,000 ",Houston,1616 Fountain View Dr,29.75083256294366,-95.48604866088327
"Goh, Jonathan",Jonathan,Goh,915 W Exchange Pkwy # 100,Allen,TX,(214) 547-1571,Physical Therapists,Physical Therapists,,$0 ,Dallas F Wth,915 W Exchange Pkwy,33.1153031,-96.67679482181923
"Goh, Robert K MD",Robert K,Goh,8960 Hillside Rd,Amarillo,TX,Not Available,Physicians & Surgeons,Physicians & Surgeons,,"$964,000 ",Amarillo,8960 Hillside Rd,35.14751255,-101.94181165651815
Hungerrush,Ken,Goh,1315 W Sam Hou Pkwy N # 100,Houston,TX,(281) 589-2500,Writers,Writers,,$0 ,Houston,1315 W Sam Hou Pkwy N,,
Law Office Of Jerry Goh PC,Jerry,Goh,777 S Central Expy # 1d,Richardson,TX,(972) 991-9188,Attorneys,Attorneys,,"$1,386,000 ",Dallas F Wth,777 S Central Expy,32.9427609517841,-96.74155655184794
Lubbock Breakfast House,Andrew,Goh,7006 University Ave # 17,Lubbock,TX,(806) 687-8912,Restaurants,Restaurants,Foods-Carry Out,"$1,844,000 ",Lubbock,7006 University Ave,33.5301578,-101.8719818
Matheson Tri Gas,Timothy,Goh,2040 California Crossing Rd,Dallas,TX,(972) 830-9983,Gas-Indstrl/Med-Cylinder & Bulk (Whls),Gas-Indstrl/Med-Cylinder & Bulk (Whls),Gas-Ind & Medical-Cylinder & Bulk-Mfrs,"$218,791,000 ",Dallas F Wth,2040 California Crossing Rd,32.865502250000006,-96.91053484975966
Network Box USA LLC,Sheela,Goh,2825 Wilcrest Dr # 259,Houston,TX,(832) 242-5757,Computer Services,Computer Services,Software/Application/Platform Publishing,"$861,000 ",Houston,2825 Wilcrest Dr,29.734061265306124,-95.57163551020408
Ocean Waves Products Inc,Sammie,Goh,6215 Richmond Ave,Houston,TX,(713) 783-1688,Seafood-Wholesale,Seafood-Wholesale,Prepared Fish & Seafood Products (Mfrs),"$5,563,000 ",Houston,6215 Richmond Ave,29.73170514285714,-95.49037571428572
Pacific Century Realty,Alfred,Goh,222 Municipal Dr # 138,Richardson,TX,(972) 792-9888,Real Estate,Real Estate,,"$4,390,000 ",Dallas F Wth,222 Municipal Dr,32.9737151,-96.71974987751196
Real Foundations Inc,Meeling,Goh,13727 Noel Rd # 900,Dallas,TX,(214) 292-7000,Real Estate Consultants,Real Estate Consultants,Home Builders,$0 ,Dallas F Wth,13727 Noel Rd,32.935298382550336,-96.81815426845637
Sweetech LLC,Kheng S,Goh,19031 W Windhaven Terrace Trl,Cypress,TX,Not Available,Nonclassified Establishments,Nonclassified Establishments,,$0 ,Houston,19031 W Windhaven Terrace Trl,,
2020 Counseling LLC,Katy,Kong,12959 Jupiter Rd # 140,Dallas,TX,(817) 903-0200,Counseling Services,Counseling Services,,"$140,000 ",Dallas F Wth,12959 Jupiter Rd,32.87236785,-96.68372121238896
A Beam Consulting USA LTD,David,Kong,8445 Freeport Pkwy # 525,Irving,TX,(972) 929-3130,Business Management Consultants,Business Management Consultants,Marketing Programs & Services,"$781,000 ",Dallas F Wth,8445 Freeport Pkwy,32.922879737918656,-97.01921777738153
Ace Express Inc,Maurice,Kong,3340 Greens Rd # B550,Houston,TX,(281) 219-2828,Freight-Forwarding,Freight-Forwarding,,"$1,531,000 ",Houston,3340 Greens Rd,29.951344666666667,-95.33594052525252
Alicia's,Alice,Kong,211 S 16th St,Mcallen,TX,(956) 631-7787,Women's Apparel-Retail,Women's Apparel-Retail,,"$686,000 ",Mc Allen,211 S 16th St,26.202495760337733,-98.23688257972903
Amax Investment Svc,Serena,Kong,2828 Patricia Ln,Garland,TX,(972) 473-2218,Investments,Investments,,"$2,383,000 ",Dallas F Wth,2828 Patricia Ln,32.88246817137376,-96.6595616000213
Ann Kong 1975 LLC,Ann,Kong,422 State Highway 110 N,Whitehouse,TX,Not Available,Restaurants,Restaurants,,"$496,000 ",Tyler,422 State Highway 110 N,,
Armku LLC,Rodolfo E,Kong,12625 Memorial Dr # 145,Houston,TX,Not Available,Nonclassified Establishments,Nonclassified Establishments,,$0 ,Houston,12625 Memorial Dr,29.766109,-95.554586
Baptist Regional Cancer Ctr,L,Kong,8333 9th Ave # G,Port Arthur,TX,(409) 729-8088,Cancer Treatment Centers,Cancer Treatment Centers,Physicians & Surgeons,"$3,676,000 ",Beaumont,8333 9th Ave,29.94936865525858,-93.98154591749092
Capital One,Ning,Kong,6161 Retail Rd,Dallas,TX,(214) 414-3882,Banks,Banks,,"$2,517,000 ",Dallas F Wth,6161 Retail Rd,32.86174507149498,-96.75433675720562
Cardinal Health,Cristina,Kong,1320 Don Haskins Dr,El Paso,TX,(915) 860-0923,Pharmaceutical Products-Wholesale,Pharmaceutical Products-Wholesale,Hospital Equipment & Supplies (Whls),"$58,217,000 ",El Paso,1320 Don Haskins Dr,31.724426,-106.288279
Chili's,Serena,Kong,5702 San Bernardo Ave,Laredo,TX,(956) 725-9939,Restaurants,Restaurants,Foods-Carry Out,"$3,183,000 ",Laredo,5702 San Bernardo Ave,27.553491,-99.5048370809063
Clinic Of North Texas,Soe-Ni N,Kong,501 Midwestern Pkwy E,Wichita Falls,TX,(940) 766-3551,Physicians & Surgeons,Physicians & Surgeons,,"$287,000 ",Wichita Flls,501 Midwestern Pkwy E,33.87611363331923,-98.47902569632853
Clinics Of North Texas,Rita K O,Kong,501 Midwestern Pkwy E,Wichita Falls,TX,(940) 766-3551,Physicians & Surgeons,Physicians & Surgeons,,"$287,000 ",Wichita Flls,501 Midwestern Pkwy E,33.87611363331923,-98.47902569632853
CNPC USA Corp,Juan,Kong,2901 Wilcrest Dr # 600,Houston,TX,(713) 972-6600,Oil & Gas Producers,Oil & Gas Producers,Oil & Gas Exploration & Development,"$5,198,000 ",Houston,2901 Wilcrest Dr,29.732661673469387,-95.57179498979592
Cy-Fair Cancer Ctr,Lourdes,Kong,10650 Steepletop Dr,Houston,TX,(281) 890-8885,Physicians & Surgeons,Physicians & Surgeons,Cancer Treatment Centers,"$1,757,000 ",Houston,10650 Steepletop Dr,,
D H R Intl,Jody,Kong,1250 S Captl TX Hwy # 3-400,West Lake Hills,TX,(512) 328-6363,Executive Search Consultants,Executive Search Consultants,,"$286,000 ",Austin,1250 S Captl TX Hwy,,
Dallas Dental Wellness,Sarah H,Kong,8222 Douglas Ave # 509,Dallas,TX,(214) 396-7876,Dentists,Dentists,,"$597,000 ",Dallas F Wth,8222 Douglas Ave,32.862872949999996,-96.80814549664706
Dallas Dental Wellness,Sarah,Kong,8222 Douglas Ave # 509,Dallas,TX,(214) 396-7876,Dentists,Dentists,,"$747,000 ",Dallas F Wth,8222 Douglas Ave,32.862872949999996,-96.80814549664706
Fendi,Vivian,Kong,5015 Westheimer Rd # 2115,Houston,TX,(713) 369-0545,Fur Business-Retail,Fur Business-Retail,Handbags,"$679,000 ",Houston,5015 Westheimer Rd,29.74065,-95.462216
Grand China Restaurant,Tang,Kong,4018 Ross Ave,Dallas,TX,(214) 515-5505,Restaurants,Restaurants,,"$62,000 ",Dallas F Wth,4018 Ross Ave,32.79940298989899,-96.78424306060606
Healthtexas Provider Network,Jun H,Kong,4161 Mckinney Ave # 300,Dallas,TX,(214) 219-6655,Physicians & Surgeons,Physicians & Surgeons,,"$723,000 ",Dallas F Wth,4161 Mckinney Ave,32.815277571428574,-96.79157295918368
Hip Sign Assn,Allen,Kong,1729 Bandera Rd,San Antonio,TX,Not Available,Associations,Associations,,$0 ,San Antonio,1729 Bandera Rd,29.4474412,-98.5420771
Ingenesis,Prany,Kong,10231 Kotzebue St,San Antonio,TX,(210) 824-1217,Employment Agencies & Opportunities,Employment Agencies & Opportunities,Nurses-Registered Rn,"$221,746,000 ",San Antonio,10231 Kotzebue St,29.533099285714286,-98.45258040816327
Iris Bagel & Coffee House,Young,Kong,5801 W Interstate 20 # 360,Arlington,TX,(817) 561-9989,Restaurants,Restaurants,Bagels,"$168,000 ",Dallas F Wth,5801 W Interstate 20,32.67361793144084,-97.19630434663688
Kason's All Star Donuts,Terri,Kong,12443 State Highway 64 E,Tyler,TX,(903) 565-4400,Doughnuts,Doughnuts,,"$221,000 ",Tyler,12443 State Highway 64 E,,
Kingoperating,Raymond,Kong,6142 Campbell Rd,Dallas,TX,(214) 420-3001,Investments,Investments,Oil & Gas Producers,"$14,894,000 ",Dallas F Wth,6142 Campbell Rd,32.982386757517965,-96.80128167275372
Kong Global LLC,Tina,Kong,9601 N Beach St # 105,Fort Worth,TX,(817) 952-1999,Nonclassified Establishments,Nonclassified Establishments,,$0 ,Dallas F Wth,9601 N Beach St,32.775359,-97.287919
Kong Jeffrey Joseph OD,Jeffrey J,Kong,4901 Calhoun Rd,Houston,TX,(713) 743-1921,Optometrists OD,Optometrists OD,,$0 ,Houston,4901 Calhoun Rd,29.7163198,-95.33903969934227
Kong Lingkun MD,Lingkun,Kong,333 N Santa Rosa # P-210704,San Antonio,TX,(210) 704-2011,Physicians & Surgeons,Physicians & Surgeons,,$0 ,San Antonio,333 N Santa Rosa,,
Kong Mick DC,Mick,Kong,517 Harwood Rd,Bedford,TX,(817) 355-5200,Chiropractors DC,Chiropractors DC,,$0 ,Dallas F Wth,517 Harwood Rd,32.852366773702386,-97.16199580018903
Kong Xiaofei MD,Xiaofei,Kong,1801 Inwood Rd # 6,Dallas,TX,(214) 645-0575,Physicians & Surgeons,Physicians & Surgeons,,$0 ,Dallas F Wth,1801 Inwood Rd,32.81570175,-96.8464076458925
"Kong, Joseph S MD",Joseph S,Kong,1113 Barkdull St,Houston,TX,Not Available,Physicians & Surgeons,Physicians & Surgeons,,"$659,000 ",Houston,1113 Barkdull St,29.72845275510204,-95.3930333877551
"Kong, KATY",Katy,Kong,11300 N Central Expy # 610,Dallas,TX,(214) 530-0021,Counselors,Counselors,,"$47,000 ",Dallas F Wth,11300 N Central Expy,32.9014704,-96.76802796511019
"Kong, Lina Yap",Lina Yap,Kong,13003 Bissonnet St,Houston,TX,(713) 936-9997,Counselors,Counselors,Counselors-Licensed Professional,"$42,000 ",Houston,13003 Bissonnet St,29.6745966,-95.5755826
"Kong, Lingkun MD",Lingkun,Kong,3601 4th St # 7217,Lubbock,TX,(806) 743-2020,Physicians & Surgeons,Physicians & Surgeons,,"$794,000 ",Lubbock,3601 4th St,33.5894699,-101.8920203
"Kong, Nancy",Nancy,Kong,500 Congress Ave,Austin,TX,(512) 474-2380,Pharmacists,Pharmacists,,$0 ,Austin,500 Congress Ave,30.2674834,-97.74362175
"Kong, Wah J DDS",Wah J,Kong,2205 Clinton Dr,Galena Park,TX,(713) 674-0550,Dentists,Dentists,,"$551,000 ",Houston,2205 Clinton Dr,29.732346978723406,-95.24616580851064
Kongtronics,Meng,Kong,6116 Skyline Dr # 203,Houston,TX,(832) 276-1192,Computer & Equipment Dealers,Computer & Equipment Dealers,,"$1,242,000 ",Houston,6116 Skyline Dr,29.72864055969084,-95.49028963822833
Live Oak Cottages LLC,Yanfeng M,Kong,2717 Wexford Dr,Plano,TX,Not Available,Chalet & Cabin Rentals,Chalet & Cabin Rentals,,"$711,000 ",Dallas F Wth,2717 Wexford Dr,33.03521812632351,-96.77283989419684
M D Kong Intl Trading LLC,Linghua,Kong,3108 Midway Rd # 101,Plano,TX,Not Available,Restaurants,Restaurants,,"$474,000 ",Dallas F Wth,3108 Midway Rd,33.04225223829738,-96.83920256214697
Mega Fortune Inc,Karyeng,Kong,22343 Slate Oaks Ln,Richmond,TX,Not Available,Nonclassified Establishments,Nonclassified Establishments,,$0 ,Houston,22343 Slate Oaks Ln,,
Meridian Office Systems Inc,Karen,Kong,4113 Lindbergh Dr,Addison,TX,(972) 690-3661,Printers (Mfrs),Printers (Mfrs),Copying & Duplicating Machines & Supls,"$2,082,000 ",Dallas F Wth,4113 Lindbergh Dr,32.957795232323235,-96.84231425252526
Mr Donut & Kolaches,Pok,Kong,8945 S Fry Rd,Katy,TX,(281) 391-0700,Doughnuts,Doughnuts,,"$106,000 ",Houston,8945 S Fry Rd,,
New Century Imports,Jie,Kong,7530 Harwin Dr,Houston,TX,(713) 988-4603,Importers (Whls),Importers (Whls),,"$5,389,000 ",Houston,7530 Harwin Dr,29.71771103030303,-95.5177358989899
OK Donuts,Kim S,Kong,801 Brook Ave,Wichita Falls,TX,(940) 763-1405,Doughnuts,Doughnuts,,"$88,000 ",Wichita Flls,801 Brook Ave,33.905295,-98.503546
Oriental Gourmet,Tin,Kong,8456 Gulf Fwy,Houston,TX,(713) 643-1201,Restaurants,Restaurants,,"$1,210,000 ",Houston,8456 Gulf Fwy,29.67435486585366,-95.26593325609755
Ovilla Road Cleaners,Sang,Kong,132 E Ovilla Rd # 7,Red Oak,TX,(972) 617-8422,Cleaners,Cleaners,,"$153,000 ",Dallas F Wth,132 E Ovilla Rd,32.532791950000004,-96.81208189014285
Prudential Financial,Maria,Kong,1233 West Loop S # 1100,Houston,TX,(713) 960-5081,Insurance,Insurance,Financial Advisory Services,"$5,953,000 ",Houston,1233 West Loop S,29.75611855,-95.45463994978688
Razorfish LLC,Chun,Kong,300 W 6th St,Austin,TX,(512) 532-2000,Advertising-Agencies & Counselors,Advertising-Agencies & Counselors,Internet Service,"$17,517,000 ",Austin,300 W 6th St,30.26917985,-97.74561605534073
S J Y R Corp,Suk J,Kong,110 E Shady Grove Rd,Irving,TX,Not Available,Nonclassified Establishments,Nonclassified Establishments,,$0 ,Dallas F Wth,110 E Shady Grove Rd,32.801142208597895,-96.94665340416219
Sarens Breakfast & Donuts,Scott,Kong,1732 N Mays St,Round Rock,TX,(512) 238-6601,Doughnuts,Doughnuts,,"$82,000 ",Austin,1732 N Mays St,30.524248333333333,-97.68611200000001
Schlumberger,Gary,Kong,7030 Ardmore St,Houston,TX,(713) 513-2000,Oil Field Service,Oil Field Service,Oil Field Equipment-Manufacturers,"$62,364,000 ",Houston,7030 Ardmore St,29.69561835,-95.37943707320692
Sixth Street Donuts,Jeong,Kong,1002 W 6th St,Irving,TX,(972) 254-0183,Doughnuts,Doughnuts,,"$131,000 ",Dallas F Wth,1002 W 6th St,32.808551296875,-96.958770125
SK Management,Christina,Kong,2540 K Ave # 388,Plano,TX,(972) 473-2219,Real Estate Management,Real Estate Management,Real Estate Investment Trusts,"$244,000 ",Dallas F Wth,2540 K Ave,33.03325101219512,-96.69927415853658
Snowflake Donuts,Pok,Kong,728 W Brazos Ave,West Columbia,TX,(979) 345-9962,Restaurants,Restaurants,,"$58,000 ",Houston,728 W Brazos Ave,,
Solvay Chemicals Inc,Yougen,Kong,3737 Buffalo Speedway # 800,Houston,TX,(713) 525-6800,Chemicals (Whls),Chemicals (Whls),Industrial Inorganic Chmcls NEC (Mfrs),$0 ,Houston,3737 Buffalo Speedway,29.73297535,-95.4281934348241
Texas Public Radio,Vince,Kong,321 W Commerce St,San Antonio,TX,(210) 614-8977,Radio Stations & Broadcasting Companies,Radio Stations & Broadcasting Companies,Non-Profit Organizations,"$2,895,000 ",San Antonio,321 W Commerce St,29.425922,-98.502617
Today's Vision,James,Kong,955 Mckinney St,Houston,TX,(713) 652-2010,Diabetes Information Centers,Diabetes Information Centers,Physicians & Surgeons,"$210,000 ",Houston,955 Mckinney St,29.7573168,-95.3651116
Today's Vision,James,Kong,5101 Avenue Highway 90 # 67,Rosenberg,TX,(281) 342-5848,Optometrists OD,Optometrists OD,,"$610,000 ",Houston,5101 Avenue Highway 90,,
Today's Vision Rosenberg-Jam,James,Kong,5101 Avenue H # 67,Rosenberg,TX,(281) 342-3995,Optometrists OD,Optometrists OD,Optical Goods-Retail,"$711,000 ",Houston,5101 Avenue H,29.570564,-95.77680658490566
Today's Vision-Fairmont,James,Kong,5018 Fairmont Pkwy,Pasadena,TX,(281) 991-3937,Optometrists OD,Optometrists OD,Optical Goods-Retail,"$571,000 ",Houston,5018 Fairmont Pkwy,29.64947712244898,-95.16699032653061
Todays Vision,James,Kong,955 Mckinney St,Houston,TX,(713) 652-2010,Optometrists OD,Optometrists OD,,"$343,000 ",Houston,955 Mckinney St,29.7573168,-95.3651116
Todays Vision Inc,James,Kong,955 Mckinney St # 170,Houston,TX,(713) 659-4911,Optometrists OD,Optometrists OD,,"$457,000 ",Houston,955 Mckinney St,29.7573168,-95.3651116
Trinity Cuisine LLC,Zhuo,Kong,713 Ferrule Dr,Mckinney,TX,Not Available,Restaurants,Restaurants,,"$474,000 ",Dallas F Wth,713 Ferrule Dr,33.17193185714286,-96.62776375510204
Trinity Transaction Advisory,Gerald,Kong,10440 N Central Expy # 800,Dallas,TX,(972) 238-8400,Telecommunications Services,Telecommunications Services,Telephone Companies,"$989,000 ",Dallas F Wth,10440 N Central Expy,32.8891584,-96.76880618570287
Trinity Transaction Advisory,Gerald,Kong,9535 Forest Ln # 124,Dallas,TX,(972) 238-8400,Nonclassified Establishments,Nonclassified Establishments,,$0 ,Dallas F Wth,9535 Forest Ln,32.91119775,-96.72922582672413
Twenty 19 Cosmetics LLC,Fanyue,Kong,9600 Bellaire Blvd # 108,Houston,TX,Not Available,Cosmetics & Perfumes-Retail,Cosmetics & Perfumes-Retail,,"$306,000 ",Houston,9600 Bellaire Blvd,29.70489,-95.551607
VCA Properties LLC,Vincent,Kong,431 Quail Creek Dr,Murphy,TX,Not Available,Real Estate Management,Real Estate Management,,"$244,000 ",Dallas F Wth,431 Quail Creek Dr,33.02597420980656,-96.62220558184399
Westgate Dental Austin PLLC,Vu,Kong,6700 West Gate Blvd # 101,Austin,TX,(512) 447-0808,Dentists,Dentists,,"$770,000 ",Austin,6700 West Gate Blvd,30.2099715,-97.81475201385587
Westgate Family Dental Rr Pllc,Vu,Kong,5290 N A W Grimes Blvd # 400,Round Rock,TX,(517) 414-9468,Dentists,Dentists,,$0 ,Austin,5290 N A W Grimes Blvd,30.561891,-97.6462176
Woodlands Christian Academy,Melissa,Kong,5800 Academy Way,The Woodlands,TX,(936) 273-2555,Schools,Schools,Religious Schools,$0 ,Houston,5800 Academy Way,30.2031069,-95.4880266
Gold Beauty Supply,Paul,Gwak,1220 N Town East Blvd # 640,Mesquite,TX,(972) 270-2323,Wigs Toupees & Hairpieces,Wigs Toupees & Hairpieces,,"$256,000 ",Dallas F Wth,1220 N Town East Blvd,32.8105863,-96.6122342
Gwak Do Young MD,DO Young,Gwak,5323 Harry Hines Blvd,Dallas,TX,(214) 648-3111,Physicians & Surgeons,Physicians & Surgeons,,$0 ,Dallas F Wth,5323 Harry Hines Blvd,32.811528249999995,-96.84149851063599
Landstar Ranger Inc,Emmanuel,Gwak,16906 Cross Springs Dr,Houston,TX,(281) 463-2767,Trucking,Trucking,Trucking-Motor Freight,"$550,000 ",Houston,16906 Cross Springs Dr,,
A-Plus Tailor,Soon,Kwak,150 S Denton Tap Rd # 110,Coppell,TX,(972) 393-0445,Alterations-Clothing,Alterations-Clothing,,"$128,000 ",Dallas F Wth,150 S Denton Tap Rd,32.9666152,-96.9927181
Agua To Go,Okhyun,Kwak,2449 Valwood Pkwy,Dallas,TX,Not Available,Nonclassified Establishments,Nonclassified Establishments,,$0 ,Dallas F Wth,2449 Valwood Pkwy,32.93878928947368,-96.89879405263157
Aveanna Healthcare,Yoonjung,Kwak,9430 Research Blvd # 2130,Austin,TX,(512) 248-0400,Home Health Service,Home Health Service,Physicians & Surgeons,"$387,000 ",Austin,9430 Research Blvd,30.386022153061223,-97.74229992857143
Baker Hughes Co,Hyung,Kwak,11340 Fm 2920 Rd,Tomball,TX,(281) 290-5100,Oil Field Service,Oil Field Service,Oil Field Equipment-Manufacturers,"$3,327,000 ",Houston,11340 Fm 2920 Rd,,
Children's Dental Care-Garland,Kee U,Kwak,2426 Belt Line Rd,Garland,TX,(972) 530-3898,Dentists,Dentists,,"$597,000 ",Dallas F Wth,2426 Belt Line Rd,32.94479285577019,-96.66564725983369
Children's Dental Care-Garland,Kee,Kwak,2426 Belt Line Rd,Garland,TX,(972) 530-3898,Dentists,Dentists,,"$1,343,000 ",Dallas F Wth,2426 Belt Line Rd,32.94479285577019,-96.66564725983369
Clear Lake Modern Dentistry,Elbert K,Kwak,1000 Bay Area Blvd # A,Houston,TX,(281) 990-9400,Dentists,Dentists,,"$551,000 ",Houston,1000 Bay Area Blvd,29.5563568,-95.1181843
Don Chicken Lakeline Inc,Junghyun,Kwak,11301 Lakeline Blvd,Austin,TX,(201) 482-0852,Restaurants,Restaurants,Foods-Carry Out,"$273,000 ",Austin,11301 Lakeline Blvd,30.4796296,-97.79899199436136
Donut Palace,O K,Kwak,3917 E Belknap St,Haltom City,TX,(817) 834-0981,Doughnuts,Doughnuts,Bakers-Retail,"$138,000 ",Dallas F Wth,3917 E Belknap St,32.781150214870436,-97.29055628281715
Fairfield Medical Ctr,Jennifer S,Kwak,15040 Fairfield Vl Dr # 150,Cypress,TX,(281) 304-5100,Physicians & Surgeons,Physicians & Surgeons,,"$659,000 ",Houston,15040 Fairfield Vl Dr,,
Fairfield Medical Ctr,Jennifer S,Kwak,15040 Fairfield Vl Dr # 150,Cypress,TX,(281) 304-5100,Medical Centers,Medical Centers,,"$964,000 ",Houston,15040 Fairfield Vl Dr,,
K & V Properties LLC,Jae-Hyuck,Kwak,2515 Strawberry Rd,Pasadena,TX,Not Available,Real Estate Management,Real Estate Management,,"$580,000 ",Houston,2515 Strawberry Rd,29.6749848877551,-95.19308498979592
KWAK Jamie Hawoon,Jamie H,Kwak,4120 N Collins St # 100,Arlington,TX,(817) 774-9320,Physicians Assistants,Physicians Assistants,,$0 ,Dallas F Wth,4120 N Collins St,32.7612013,-97.0972409
KWAK Nathaniel MD,Nathaniel,Kwak,6201 Harry Hines Blvd,Dallas,TX,(214) 633-5555,Physicians & Surgeons,Physicians & Surgeons,,"$723,000 ",Dallas F Wth,6201 Harry Hines Blvd,32.8199841,-96.84941992144059
"KWAK, Angeline",Angeline,Kwak,9428 Dyer St,El Paso,TX,(915) 751-4415,Pharmacists,Pharmacists,,"$63,000 ",El Paso,9428 Dyer St,31.878632223995353,-106.42255851344667
"KWAK, Elbert K DDS",Elbert K,Kwak,1911 W League City Pkwy # 130,League City,TX,Not Available,Dentists,Dentists,,"$497,000 ",Houston,1911 W League City Pkwy,29.485543308301285,-95.11685004534061
"KWAK, Jae-Hyuck DDS",Jae-Hyuck,Kwak,8505 Gulf Fwy # D,Houston,TX,(832) 566-3553,Dentists,Dentists,,"$551,000 ",Houston,8505 Gulf Fwy,29.670048,-95.2634455
"KWAK, Jun-Kyu",Jun-Kyu,Kwak,4470 W Jefferson Blvd # 500,Dallas,TX,(214) 420-7008,Dentists,Dentists,,$0 ,Dallas F Wth,4470 W Jefferson Blvd,32.73681394330264,-96.89279722129059
"KWAK, Kelly",Kelly,Kwak,3133 E Lemmon Ave,Dallas,TX,(214) 599-2108,Pharmacists,Pharmacists,,$0 ,Dallas F Wth,3133 E Lemmon Ave,,
"KWAK, Kelly",Kelly,Kwak,6100 S Broadway Ave # 160,Tyler,TX,(903) 630-8802,Pharmacists,Pharmacists,,"$58,000 ",Tyler,6100 S Broadway Ave,32.28324470343113,-95.30491731455494
"KWAK, Young J MD",Young J,Kwak,7515 Main St # 240,Houston,TX,(713) 791-9966,Physicians & Surgeons,Physicians & Surgeons,,"$659,000 ",Houston,7515 Main St,29.693088501648585,-95.40070810594175
Lux Nail Spa,Eui-Hun,Kwak,1401 S Buckner Blvd,Dallas,TX,(214) 391-7880,Manicuring,Manicuring,,"$165,000 ",Dallas F Wth,1401 S Buckner Blvd,32.7748774,-96.6827841
Memorial Modern Dentistry My,Elbert K,Kwak,9355 Katy Fwy,Houston,TX,(713) 468-3838,Dentists,Dentists,,"$551,000 ",Houston,9355 Katy Fwy,29.785014775462365,-95.52244779693387
Moonja's Alterations,Soon,Kwak,150 S Denton Tap Rd # 110,Coppell,TX,(972) 393-0445,Alterations-Clothing,Alterations-Clothing,,"$128,000 ",Dallas F Wth,150 S Denton Tap Rd,32.9666152,-96.9927181
Myung's Embroidery Inc,Myung H,Kwak,1850 Crown Dr # 1116,Dallas,TX,Not Available,Embroidery,Embroidery,,"$275,000 ",Dallas F Wth,1850 Crown Dr,32.89933665,-96.9153581
Neora,Young,Kwak,4006 Belt Line Rd # 100,Addison,TX,(855) 463-7486,Skin Treatments,Skin Treatments,,"$124,000 ",Dallas F Wth,4006 Belt Line Rd,32.95391720566551,-96.84647064087358
Protiviti,Charles,Kwak,600 Travis St # 800,Houston,TX,(713) 314-4900,Business Management Consultants,Business Management Consultants,Accounting & Bookkeeping General Svc,"$16,837,000 ",Houston,600 Travis St,29.760320450000002,-95.3639963324823
Stella Dental Care-Pasadena,Jae-Hyuck,Kwak,2515 Strawberry Rd,Pasadena,TX,(713) 943-9993,Dentists,Dentists,,"$551,000 ",Houston,2515 Strawberry Rd,29.6749848877551,-95.19308498979592
Synopsys Inc,Sunghoon,Kwak,1301 S Mopac Expy # 200,Austin,TX,(512) 372-7500,Software/Application/Platform Publishing,Software/Application/Platform Publishing,Computer Services,"$9,740,000 ",Austin,1301 S Mopac Expy,30.262269,-97.788329
Bedford Wash LLC,Kyeong,Koo,2200 Central Dr,Bedford,TX,Not Available,Car Washing & Polishing,Car Washing & Polishing,,"$566,000 ",Dallas F Wth,2200 Central Dr,32.841302,-97.133383
Behavioral Health At Round,Judith,Koo,2120 N Mays St # 490,Round Rock,TX,(512) 341-8908,Physicians & Surgeons,Physicians & Surgeons,,"$214,000 ",Austin,2120 N Mays St,30.528773100000002,-97.68931185251722
Centromed,Felix C,Koo,3750 Commercial Ave,San Antonio,TX,(210) 923-4111,Physicians & Surgeons,Physicians & Surgeons,,"$620,000 ",San Antonio,3750 Commercial Ave,29.335848,-98.516118
Charles Park Investments LLC,Eun Y,Koo,5334 Ross Ave # 850,Dallas,TX,Not Available,Investments,Investments,,"$2,383,000 ",Dallas F Wth,5334 Ross Ave,32.80970412244898,-96.77188124489795
Cherry Cove Apartments,Michael,Koo,5959 Bissonnet St,Houston,TX,(713) 666-3073,Apartments,Apartments,,"$1,554,000 ",Houston,5959 Bissonnet St,29.69847669387755,-95.48572334693878
City-The Colony Convention Bur,Rebecca,Koo,6900 Main St,The Colony,TX,(972) 624-3153,Automobile Body-Repairing & Painting,Automobile Body-Repairing & Painting,Convention Information Bureaus,"$435,000 ",Dallas F Wth,6900 Main St,33.098603,-96.892666
Dentistry In Frisco,Catherine,Koo,4944 Preston Rd # 108,Frisco,TX,(972) 731-5680,Dentists,Dentists,,"$334,000 ",Dallas F Wth,4944 Preston Rd,33.1195655,-96.8039887
Dentistry In Frisco,Catherine L,Koo,4944 Preston Rd # 108,Frisco,TX,(972) 731-5680,Dentists,Dentists,,"$153,000 ",Dallas F Wth,4944 Preston Rd,33.1195655,-96.8039887
Dream Mcwireless,Bon,Koo,1247 Blalock Rd,Houston,TX,(713) 932-9977,Cellular Telephones-Equipment & Supls,Cellular Telephones-Equipment & Supls,,"$306,000 ",Houston,1247 Blalock Rd,29.7915636,-95.5218684
Hanin LLC,Kim H,Koo,3701 Fairway Blvd # 106,Wichita Falls,TX,Not Available,Nonclassified Establishments,Nonclassified Establishments,,$0 ,Wichita Flls,3701 Fairway Blvd,33.877047,-98.560828
Hong Kong Restaurant,Lawrence,Koo,9055 Garland Rd,Dallas,TX,(214) 328-2320,Restaurants,Restaurants,,"$309,000 ",Dallas F Wth,9055 Garland Rd,32.82791337755102,-96.70898024489796
Houston Drapery Ctr,Eng,Koo,3428 Fondren Rd,Houston,TX,(713) 785-8888,Interior Decorators Design & Consultants,Interior Decorators Design & Consultants,,"$2,481,000 ",Houston,3428 Fondren Rd,29.72665447368421,-95.52068794736843
Houston Methodist Cardiology,Michael,Koo,16605 Southwest Fwy,Sugar Land,TX,(832) 532-7514,Physicians & Surgeons,Physicians & Surgeons,Clinics,"$1,397,000 ",Houston,16605 Southwest Fwy,29.5907363,-95.6294628
Houston Methodist Cardiology,Michael Hos,Koo,16605 Southwest Fwy # 625,Sugar Land,TX,(713) 776-9500,Physicians & Surgeons,Physicians & Surgeons,,"$599,000 ",Houston,16605 Southwest Fwy,29.5907363,-95.6294628
Irving Dental Assoc PLLC,Bonhee R,Koo,807 N Belt Line Rd,Irving,TX,(972) 313-2002,Dentists,Dentists,,"$597,000 ",Dallas F Wth,807 N Belt Line Rd,32.82202238549417,-96.99396884483963
Jefferson Dental Clinic,Yanghoe,Koo,5334 Ross Ave # 800,Dallas,TX,(214) 841-4200,Dentists,Dentists,Clinics,"$3,131,000 ",Dallas F Wth,5334 Ross Ave,32.80970412244898,-96.77188124489795
Kelsey-Seybold Clinic,Hyunmo Lee,Koo,8233 N Sam Houston Pkwy E,Humble,TX,(713) 442-2000,Physicians & Surgeons,Physicians & Surgeons,,"$659,000 ",Houston,8233 N Sam Houston Pkwy E,,
Kelsey-Seybold Clinic,Hyunmo L,Koo,2755 W Lake Houston Pkwy,Kingwood,TX,(713) 442-2100,Physicians & Surgeons,Physicians & Surgeons,,"$659,000 ",Houston,2755 W Lake Houston Pkwy,30.045943649999998,-95.1832898
Koo & Assoc Intl,Penelope,Koo,6402 Needham Ln,Austin,TX,(512) 301-4170,Business Services NEC,Business Services NEC,Federal Government Contractors,"$235,000 ",Austin,6402 Needham Ln,30.1928305,-97.89243285409913
Koo Minnie DMD,Minnie,Koo,287 Frontage Rd # 160,Mansfield,TX,(817) 405-2260,Dentists,Dentists,,$0 ,Dallas F Wth,287 Frontage Rd,,
Koo Susan H DDS,Susan H,Koo,204 Coit Rd,Plano,TX,Not Available,Dentists,Dentists,,$0 ,Dallas F Wth,204 Coit Rd,33.0007127,-96.764339
Koo Suzzane Jean MD,Suzzane J,Koo,6720 Bertner Ave,Houston,TX,(832) 355-2666,Physicians & Surgeons,Physicians & Surgeons,,$0 ,Houston,6720 Bertner Ave,29.708142600000002,-95.40044144691583
"Koo, Eden",Eden,Koo,5323 Harry Hines Blvd,Dallas,TX,(808) 722-3018,Physicians & Surgeons,Physicians & Surgeons,,$0 ,Dallas F Wth,5323 Harry Hines Blvd,32.811528249999995,-96.84149851063599
"Koo, Felix C MD",Felix C,Koo,1034 W County Line Rd,New Braunfels,TX,(210) 922-7000,Physicians & Surgeons,Physicians & Surgeons,,"$1,134,000 ",San Antonio,1034 W County Line Rd,29.670290133333335,-98.12057456666666
"Koo, Jason T MD",Jason T,Koo,7167 Colleyville Blvd # 102,Colleyville,TX,(817) 484-0169,Physicians & Surgeons,Physicians & Surgeons,,"$635,000 ",Dallas F Wth,7167 Colleyville Blvd,32.912772,-97.131602
"Koo, Julie",Julie,Koo,520 Camden St,San Antonio,TX,(210) 223-3246,Physicians & Surgeons,Physicians & Surgeons,,$0 ,San Antonio,520 Camden St,29.4358495,-98.4895633548816
"Koo, Patricia W Pa",Patricia W,Koo,1195 W San Antonio St,New Braunfels,TX,Not Available,Physicians Assistants,Physicians Assistants,,"$68,000 ",San Antonio,1195 W San Antonio St,29.69304491836735,-98.13406985714285
"Koo, Sungjoon T Dmd",Sungjoon T,Koo,10252 W Adams Ave # 101,Temple,TX,(254) 206-3205,Dentists,Dentists,,"$528,000 ",Killeen-Tmpl,10252 W Adams Ave,31.123576534663417,-97.45157511830791
"Koo, Suzzane J MD",Suzzane J,Koo,1500 Citywest Blvd # 300,Houston,TX,(713) 620-4000,Physicians & Surgeons,Physicians & Surgeons,,"$659,000 ",Houston,1500 Citywest Blvd,29.74722,-95.56116
Macarthur Park Dentistry,Sam S,Koo,7447 N Macarthur Blvd # 185,Irving,TX,(972) 831-9600,Dentists,Dentists,,"$597,000 ",Dallas F Wth,7447 N Macarthur Blvd,32.9076992,-96.9607527
Mallory Alexander Intl Lgstcs,Ricardo,Koo,18705 Metropolitan Rd,Laredo,TX,(956) 717-2131,Logistics Consulting Services,Logistics Consulting Services,Transportation Consultants,"$396,000 ",Laredo,18705 Metropolitan Rd,,
Michaels,Katia,Koo,5500 Greenville Ave # 700,Dallas,TX,(214) 461-9491,Craft Supplies,Craft Supplies,Arts & Crafts-Wholesale,"$8,649,000 ",Dallas F Wth,5500 Greenville Ave,32.8514964,-96.7693866797832
Midland Korean Baptist Church,Hongnak,Koo,5001 Sinclair Ave,Midland,TX,Not Available,Churches,Churches,,$0 ,Midland,5001 Sinclair Ave,32.011809,-102.102195
New Bite Dentistry,Jenni,Koo,1111 W Frankford Rd # 101,Carrollton,TX,(972) 245-2483,Dentists,Dentists,,"$715,000 ",Dallas F Wth,1111 W Frankford Rd,32.99782979645467,-96.91278976015958
Ngen Technologies Holdings Crp,Jason,Koo,5430 Lbj Fwy # 1200,Dallas,TX,(972) 663-9483,Energy Management Systems & Products,Energy Management Systems & Products,,$0 ,Dallas F Wth,5430 Lbj Fwy,32.9223968,-96.81770685950917
Piney Point Dental Implant Ctr,Heamo L,Koo,2450 Fondren Rd # 320,Houston,TX,(713) 597-7340,Dentists,Dentists,Physicians & Surgeons,"$1,102,000 ",Houston,2450 Fondren Rd,29.741541699290654,-95.52129796589973
Piney Point Oral,Steve L,Koo,2450 Fondren Rd # 320,Houston,TX,(713) 783-5560,Dentists,Dentists,,"$551,000 ",Houston,2450 Fondren Rd,29.741541699290654,-95.52129796589973
Pro Path,Jamie,Koo,1355 River Bend Dr,Dallas,TX,(214) 638-2000,Physicians & Surgeons,Physicians & Surgeons,,"$723,000 ",Dallas F Wth,1355 River Bend Dr,32.81884255,-96.8594295862565
Sewell Infiniti-North Houston,Jennie,Koo,17825 North Fwy,Houston,TX,(281) 569-3100,Automobile Dealers-New Cars,Automobile Dealers-New Cars,Automobile/Trucks Dealers-Used,"$40,869,000 ",Houston,17825 North Fwy,29.7978615,-95.371579
Sparkten,Ken,Koo,11625 Custer Rd # 110-311,Frisco,TX,(469) 645-8088,Nonclassified Establishments,Nonclassified Establishments,,$0 ,Dallas F Wth,11625 Custer Rd,33.17300315,-96.73365026404834
Sushi Sam,Lawrence,Koo,500 W Southlake Blvd # 138,Southlake,TX,(817) 410-1991,Restaurants,Restaurants,,"$670,000 ",Dallas F Wth,500 W Southlake Blvd,32.94119161616162,-97.15870088888889
Synns Alterations,Naomi,Koo,407 W Baker Rd # P,Baytown,TX,(281) 421-2583,Sewing Shops-Custom,Sewing Shops-Custom,Cleaners,"$173,000 ",Houston,407 W Baker Rd,29.76961058337,-94.97106550725893
Texas AM Health Science Ctr,Cathy,Koo,2121 W Holcombe Blvd,Houston,TX,(713) 677-7522,Medical Research,Medical Research,Health Services,$0 ,Houston,2121 W Holcombe Blvd,29.70576225,-95.40709965372793
Tolunay-Wong Engineers Inc,Winnie,Koo,10710 S Sam Hou Pkwy W # 100,Houston,TX,(713) 722-7064,Engineers,Engineers,Engineers-Consulting,$0 ,Houston,10710 S Sam Hou Pkwy W,,
Bahama Buck's,Mark,Ku,6033 Campbell Rd,Dallas,TX,(214) 774-9060,Ice Cream Parlors,Ice Cream Parlors,Restaurants,"$1,543,000 ",Dallas F Wth,6033 Campbell Rd,32.983119821242745,-96.80249209706845
Boost Mobile Auth Retailer,Bon,Ku,6006 Wesley St,Greenville,TX,(903) 268-6773,Cellular Telephones (Services),Cellular Telephones (Services),Authorized Retailer-Cellular Services,$0 ,Dallas F Wth,6006 Wesley St,33.10972466649227,-96.10939704040933
Braverman Terry OEI Eye Assoc,Barbara,Ku,1100 N Main Ave,San Antonio,TX,(210) 222-2154,Physicians & Surgeons,Physicians & Surgeons,,"$620,000 ",San Antonio,1100 N Main Ave,29.438934449999998,-98.49380931172387
Charles T Ku Inc,Charles T,Ku,1168 W Main St # E,Lewisville,TX,(972) 436-4242,Dentists,Dentists,,"$572,000 ",Dallas F Wth,1168 W Main St,33.04194938971196,-97.0229307654358
Dallas IVF,Lowell T,Ku,2840 Legacy Dr # 100,Frisco,TX,(214) 297-0027,Clinics,Clinics,Physicians & Surgeons,"$1,886,000 ",Dallas F Wth,2840 Legacy Dr,33.1020515,-96.8405104
Dallas IVF,Lowell T,Ku,2840 Legacy Dr # 100,Frisco,TX,(214) 297-0020,Physicians & Surgeons,Physicians & Surgeons,Health Care Facilities,"$707,000 ",Dallas F Wth,2840 Legacy Dr,33.1020515,-96.8405104
Doughnut & Deli,Myundkaku,Ku,1560 Highway 59 N,Bowie,TX,(940) 872-6344,Bakers-Retail,Bakers-Retail,,"$109,000 ",,1560 Highway 59 N,,
Face Dream Inc,Bon H,Ku,1878 Royal Ln # 200,Dallas,TX,Not Available,Nonclassified Establishments,Nonclassified Establishments,,$0 ,Dallas F Wth,1878 Royal Ln,32.895127599999995,-96.91544985
Flint Hills Resources,Jonathan,Ku,9822 LA Porte Fwy,Houston,TX,(713) 740-3900,Industrial Organic Chemicals NEC (Mfrs),Industrial Organic Chemicals NEC (Mfrs),Gas Plants (Mfrs),"$91,962,000 ",Houston,9822 LA Porte Fwy,29.706467713918354,-95.24087194899876
Foley & Lardner LLP,Michelle,Ku,2021 Mckinney Ave # 1600,Dallas,TX,(214) 999-3000,Attorneys,Attorneys,,"$83,106,000 ",Dallas F Wth,2021 Mckinney Ave,32.7914198,-96.8042689
Good Morning Donuts,Young,Ku,1304 S Fm 51,Decatur,TX,(940) 626-4821,Doughnuts,Doughnuts,Restaurants,"$93,000 ",Dallas F Wth,1304 S Fm 51,33.2248553,-97.5953411
H Peter Ku DDS PA,Harlington,Ku,3045 Hamilton Ave,Fort Worth,TX,(817) 870-0556,Dentists,Dentists,,"$738,000 ",Dallas F Wth,3045 Hamilton Ave,32.75445475,-97.36029545
H Peter Ku PC,Peter,Ku,3045 Hamilton Ave,Fort Worth,TX,(817) 870-0556,Dentists,Dentists,Cosmetic Dentistry,"$591,000 ",Dallas F Wth,3045 Hamilton Ave,32.75445475,-97.36029545
Inn Lock Co,Tony,Ku,5853 Point West Dr # 168,Houston,TX,(713) 271-5700,Locks & Locksmiths,Locks & Locksmiths,,"$391,000 ",Houston,5853 Point West Dr,29.717238603696067,-95.54066002995759
JCC Academics,Joy,Ku,9402 Highway 6,Missouri City,TX,(281) 710-4734,School & College Information,School & College Information,Test Preparation Instruction,$0 ,Houston,9402 Highway 6,29.5314447,-95.5078891
Kawi Hair & Eyelash,Jane,Ku,1304 Blalock Rd # G,Houston,TX,(832) 804-9694,Beauty Salons,Beauty Salons,,"$85,000 ",Houston,1304 Blalock Rd,29.793154929936303,-95.52202303821656
Ku Brian David MD,Brian D,Ku,8390 Lbj Fwy # 1000,Dallas,TX,(214) 750-9977,Physicians & Surgeons,Physicians & Surgeons,,$0 ,Dallas F Wth,8390 Lbj Fwy,32.9254892,-96.8114564
Ku Fang Jung DO,Fang J,Ku,1102 Barclay St,San Antonio,TX,(210) 233-7000,Physicians & Surgeons,Physicians & Surgeons,,$0 ,San Antonio,1102 Barclay St,29.410069326530614,-98.54292769387756
Ku Vanessa MD,Vanessa,Ku,1 Baylor Plz,Houston,TX,(713) 791-1414,Physicians & Surgeons,Physicians & Surgeons,,$0 ,Houston,1 Baylor Plz,29.7104775,-95.39580027495086
"Ku, Andrea Z MD",Andrea Z,Ku,6606 Lbj Fwy # 200,Dallas,TX,(972) 715-5000,Physicians & Surgeons,Physicians & Surgeons,,"$723,000 ",Dallas F Wth,6606 Lbj Fwy,32.9254892,-96.8114564
"Ku, Howlin B",Howlin B,Ku,501 Ogden St,San Antonio,TX,(210) 225-4588,Physical Therapists,Physical Therapists,,"$59,000 ",San Antonio,501 Ogden St,29.442911,-98.493106
"Ku, Jamie A MD",Jamie A,Ku,1515 Holcombe Blvd # 1445,Houston,TX,(713) 792-2121,Physicians & Surgeons,Physicians & Surgeons,,"$659,000 ",Houston,1515 Holcombe Blvd,29.7076703,-95.39782993506569
"Ku, Jocelyn C Do",Jocelyn C,Ku,11801 South Fwy,Burleson,TX,(817) 293-9110,Physicians & Surgeons,Physicians & Surgeons,,"$635,000 ",Dallas F Wth,11801 South Fwy,32.58615905,-97.31661787206193
"Ku, Terry DDS",Terry,Ku,12770 Merit Dr # 850,Dallas,TX,(972) 980-8500,Dentists,Dentists,,"$597,000 ",Dallas F Wth,12770 Merit Dr,32.92290367737574,-96.77231315362341
"Ku, Terry DDS",Terry,Ku,2891 Matlock Rd # 101,Mansfield,TX,Not Available,Dentists,Dentists,,"$591,000 ",Dallas F Wth,2891 Matlock Rd,32.5882369,-97.1053258
"Ku, Tsao-Chuen Dmd",Tsao-Chuen,Ku,7901 Metropolis Dr,Austin,TX,(512) 389-1010,Dentists,Dentists,,"$616,000 ",Austin,7901 Metropolis Dr,30.205596300000003,-97.69055782719137
